[{"datetime":"2023-04-23 10:00:00","co2_corrected":440.0,"temp":17.5036336667,"Sensor ID":"Bs92202","Node ID":276,"Location":"Department of Public Works","Latitude":41.7952,"Longitude":-71.39784,"Installation Date":"8\/9\/2022"},{"datetime":"2023-04-23 09:00:00","co2_corrected":440.0,"temp":16.4915785,"Sensor ID":"Bs92202","Node ID":276,"Location":"Department of Public Works","Latitude":41.7952,"Longitude":-71.39784,"Installation Date":"8\/9\/2022"},{"datetime":"2023-04-23 08:00:00","co2_corrected":441.0,"temp":16.41421,"Sensor ID":"Bs92202","Node ID":276,"Location":"Department of Public Works","Latitude":41.7952,"Longitude":-71.39784,"Installation Date":"8\/9\/2022"},{"datetime":"2023-04-23 07:00:00","co2_corrected":440.0,"temp":16.8510793333,"Sensor ID":"Bs92202","Node ID":276,"Location":"Department of Public Works","Latitude":41.7952,"Longitude":-71.39784,"Installation Date":"8\/9\/2022"},{"datetime":"2023-04-23 06:00:00","co2_corrected":441.0,"temp":16.675731,"Sensor ID":"Bs92202","Node ID":276,"Location":"Department of Public Works","Latitude":41.7952,"Longitude":-71.39784,"Installation Date":"8\/9\/2022"},{"datetime":"2023-04-23 05:00:00","co2_corrected":441.0,"temp":16.4377103333,"Sensor ID":"Bs92202","Node ID":276,"Location":"Department of Public Works","Latitude":41.7952,"Longitude":-71.39784,"Installation Date":"8\/9\/2022"},{"datetime":"2023-04-23 04:00:00","co2_corrected":442.0,"temp":16.0894293333,"Sensor ID":"Bs92202","Node ID":276,"Location":"Department of Public Works","Latitude":41.7952,"Longitude":-71.39784,"Installation Date":"8\/9\/2022"},{"datetime":"2023-04-23 10:00:00","co2_corrected":450.0,"temp":15.2228018333,"Sensor ID":"Bs152202","Node ID":262,"Location":"Main Street Martial Arts","Latitude":41.85521,"Longitude":-71.40042,"Installation Date":"11\/11\/2022"},{"datetime":"2023-04-23 09:00:00","co2_corrected":449.0,"temp":14.2007586667,"Sensor ID":"Bs152202","Node ID":262,"Location":"Main Street Martial Arts","Latitude":41.85521,"Longitude":-71.40042,"Installation Date":"11\/11\/2022"},{"datetime":"2023-04-23 08:00:00","co2_corrected":446.0,"temp":14.1487935,"Sensor ID":"Bs152202","Node ID":262,"Location":"Main Street Martial Arts","Latitude":41.85521,"Longitude":-71.40042,"Installation Date":"11\/11\/2022"},{"datetime":"2023-04-23 07:00:00","co2_corrected":445.0,"temp":14.5740758333,"Sensor ID":"Bs152202","Node ID":262,"Location":"Main Street Martial Arts","Latitude":41.85521,"Longitude":-71.40042,"Installation Date":"11\/11\/2022"},{"datetime":"2023-04-23 06:00:00","co2_corrected":445.0,"temp":14.2310788333,"Sensor ID":"Bs152202","Node ID":262,"Location":"Main Street Martial Arts","Latitude":41.85521,"Longitude":-71.40042,"Installation Date":"11\/11\/2022"},{"datetime":"2023-04-23 05:00:00","co2_corrected":445.0,"temp":13.875482,"Sensor ID":"Bs152202","Node ID":262,"Location":"Main Street Martial Arts","Latitude":41.85521,"Longitude":-71.40042,"Installation Date":"11\/11\/2022"},{"datetime":"2023-04-23 04:00:00","co2_corrected":446.0,"temp":13.8125951667,"Sensor ID":"Bs152202","Node ID":262,"Location":"Main Street Martial Arts","Latitude":41.85521,"Longitude":-71.40042,"Installation Date":"11\/11\/2022"},{"datetime":"2023-04-23 10:00:00","co2_corrected":453.0,"temp":14.5301871667,"Sensor ID":"Bs42202","Node ID":261,"Location":"Anthony Carnevale Elementary","Latitude":41.81678,"Longitude":-71.46458,"Installation Date":"12\/6\/2022"},{"datetime":"2023-04-23 09:00:00","co2_corrected":454.0,"temp":13.8775941667,"Sensor ID":"Bs42202","Node ID":261,"Location":"Anthony Carnevale Elementary","Latitude":41.81678,"Longitude":-71.46458,"Installation Date":"12\/6\/2022"},{"datetime":"2023-04-23 08:00:00","co2_corrected":451.0,"temp":13.5338905,"Sensor ID":"Bs42202","Node ID":261,"Location":"Anthony Carnevale Elementary","Latitude":41.81678,"Longitude":-71.46458,"Installation Date":"12\/6\/2022"},{"datetime":"2023-04-23 07:00:00","co2_corrected":451.0,"temp":14.1288606667,"Sensor ID":"Bs42202","Node ID":261,"Location":"Anthony Carnevale Elementary","Latitude":41.81678,"Longitude":-71.46458,"Installation Date":"12\/6\/2022"},{"datetime":"2023-04-23 06:00:00","co2_corrected":451.0,"temp":14.0178871667,"Sensor ID":"Bs42202","Node ID":261,"Location":"Anthony Carnevale Elementary","Latitude":41.81678,"Longitude":-71.46458,"Installation Date":"12\/6\/2022"},{"datetime":"2023-04-23 05:00:00","co2_corrected":452.0,"temp":13.4614888333,"Sensor ID":"Bs42202","Node ID":261,"Location":"Anthony Carnevale Elementary","Latitude":41.81678,"Longitude":-71.46458,"Installation Date":"12\/6\/2022"},{"datetime":"2023-04-23 04:00:00","co2_corrected":453.0,"temp":13.1487765,"Sensor ID":"Bs42202","Node ID":261,"Location":"Anthony Carnevale Elementary","Latitude":41.81678,"Longitude":-71.46458,"Installation Date":"12\/6\/2022"},{"datetime":"2023-04-23 10:00:00","co2_corrected":455.0,"temp":15.0988561667,"Sensor ID":"Bs72202","Node ID":270,"Location":"Smith Hill Library","Latitude":41.83549,"Longitude":-71.42217,"Installation Date":"8\/25\/2022"},{"datetime":"2023-04-23 09:00:00","co2_corrected":453.0,"temp":14.1511683333,"Sensor ID":"Bs72202","Node ID":270,"Location":"Smith Hill Library","Latitude":41.83549,"Longitude":-71.42217,"Installation Date":"8\/25\/2022"},{"datetime":"2023-04-23 08:00:00","co2_corrected":453.0,"temp":13.9606051667,"Sensor ID":"Bs72202","Node ID":270,"Location":"Smith Hill Library","Latitude":41.83549,"Longitude":-71.42217,"Installation Date":"8\/25\/2022"},{"datetime":"2023-04-23 07:00:00","co2_corrected":453.0,"temp":14.5790336667,"Sensor ID":"Bs72202","Node ID":270,"Location":"Smith Hill Library","Latitude":41.83549,"Longitude":-71.42217,"Installation Date":"8\/25\/2022"},{"datetime":"2023-04-23 06:00:00","co2_corrected":453.0,"temp":14.3071346667,"Sensor ID":"Bs72202","Node ID":270,"Location":"Smith Hill Library","Latitude":41.83549,"Longitude":-71.42217,"Installation Date":"8\/25\/2022"},{"datetime":"2023-04-23 05:00:00","co2_corrected":454.0,"temp":13.8356753333,"Sensor ID":"Bs72202","Node ID":270,"Location":"Smith Hill Library","Latitude":41.83549,"Longitude":-71.42217,"Installation Date":"8\/25\/2022"},{"datetime":"2023-04-23 04:00:00","co2_corrected":454.0,"temp":13.6518761667,"Sensor ID":"Bs72202","Node ID":270,"Location":"Smith Hill Library","Latitude":41.83549,"Longitude":-71.42217,"Installation Date":"8\/25\/2022"},{"datetime":"2023-04-23 10:00:00","co2_corrected":448.0,"temp":14.2163993333,"Sensor ID":"Bs22202","Node ID":254,"Location":"Silver Lake Residence","Latitude":41.81052,"Longitude":-71.44752,"Installation Date":"12\/1\/2022"},{"datetime":"2023-04-23 09:00:00","co2_corrected":448.0,"temp":13.278147,"Sensor ID":"Bs22202","Node ID":254,"Location":"Silver Lake Residence","Latitude":41.81052,"Longitude":-71.44752,"Installation Date":"12\/1\/2022"},{"datetime":"2023-04-23 08:00:00","co2_corrected":446.0,"temp":13.2585211667,"Sensor ID":"Bs22202","Node ID":254,"Location":"Silver Lake Residence","Latitude":41.81052,"Longitude":-71.44752,"Installation Date":"12\/1\/2022"},{"datetime":"2023-04-23 07:00:00","co2_corrected":445.0,"temp":13.7993533333,"Sensor ID":"Bs22202","Node ID":254,"Location":"Silver Lake Residence","Latitude":41.81052,"Longitude":-71.44752,"Installation Date":"12\/1\/2022"},{"datetime":"2023-04-23 06:00:00","co2_corrected":445.0,"temp":13.6866913333,"Sensor ID":"Bs22202","Node ID":254,"Location":"Silver Lake Residence","Latitude":41.81052,"Longitude":-71.44752,"Installation Date":"12\/1\/2022"},{"datetime":"2023-04-23 05:00:00","co2_corrected":446.0,"temp":13.3086853333,"Sensor ID":"Bs22202","Node ID":254,"Location":"Silver Lake Residence","Latitude":41.81052,"Longitude":-71.44752,"Installation Date":"12\/1\/2022"},{"datetime":"2023-04-23 04:00:00","co2_corrected":448.0,"temp":12.896893,"Sensor ID":"Bs22202","Node ID":254,"Location":"Silver Lake Residence","Latitude":41.81052,"Longitude":-71.44752,"Installation Date":"12\/1\/2022"},{"datetime":"2023-04-23 10:00:00","co2_corrected":450.0,"temp":14.2932208333,"Sensor ID":"Bs102202","Node ID":251,"Location":"Zuccolo Recreation Center","Latitude":41.82287,"Longitude":-71.43067,"Installation Date":"10\/4\/2022"},{"datetime":"2023-04-23 09:00:00","co2_corrected":449.0,"temp":13.3994351667,"Sensor ID":"Bs102202","Node ID":251,"Location":"Zuccolo Recreation Center","Latitude":41.82287,"Longitude":-71.43067,"Installation Date":"10\/4\/2022"},{"datetime":"2023-04-23 08:00:00","co2_corrected":448.0,"temp":13.1711921667,"Sensor ID":"Bs102202","Node ID":251,"Location":"Zuccolo Recreation Center","Latitude":41.82287,"Longitude":-71.43067,"Installation Date":"10\/4\/2022"},{"datetime":"2023-04-23 07:00:00","co2_corrected":449.0,"temp":13.7750745,"Sensor ID":"Bs102202","Node ID":251,"Location":"Zuccolo Recreation Center","Latitude":41.82287,"Longitude":-71.43067,"Installation Date":"10\/4\/2022"},{"datetime":"2023-04-23 06:00:00","co2_corrected":448.0,"temp":13.6069056667,"Sensor ID":"Bs102202","Node ID":251,"Location":"Zuccolo Recreation Center","Latitude":41.82287,"Longitude":-71.43067,"Installation Date":"10\/4\/2022"},{"datetime":"2023-04-23 05:00:00","co2_corrected":448.0,"temp":13.147472,"Sensor ID":"Bs102202","Node ID":251,"Location":"Zuccolo Recreation Center","Latitude":41.82287,"Longitude":-71.43067,"Installation Date":"10\/4\/2022"},{"datetime":"2023-04-23 04:00:00","co2_corrected":452.0,"temp":13.048122,"Sensor ID":"Bs102202","Node ID":251,"Location":"Zuccolo Recreation Center","Latitude":41.82287,"Longitude":-71.43067,"Installation Date":"10\/4\/2022"},{"datetime":"2023-04-23 10:00:00","co2_corrected":469.0,"temp":13.995565,"Sensor ID":"Bs32202","Node ID":258,"Location":"Reservoir Ave Elementary","Latitude":41.79157,"Longitude":-71.42788,"Installation Date":"11\/17\/2022"},{"datetime":"2023-04-23 09:00:00","co2_corrected":470.0,"temp":12.9299228333,"Sensor ID":"Bs32202","Node ID":258,"Location":"Reservoir Ave Elementary","Latitude":41.79157,"Longitude":-71.42788,"Installation Date":"11\/17\/2022"},{"datetime":"2023-04-23 08:00:00","co2_corrected":467.0,"temp":12.6073431667,"Sensor ID":"Bs32202","Node ID":258,"Location":"Reservoir Ave Elementary","Latitude":41.79157,"Longitude":-71.42788,"Installation Date":"11\/17\/2022"},{"datetime":"2023-04-23 07:00:00","co2_corrected":467.0,"temp":13.2117103333,"Sensor ID":"Bs32202","Node ID":258,"Location":"Reservoir Ave Elementary","Latitude":41.79157,"Longitude":-71.42788,"Installation Date":"11\/17\/2022"},{"datetime":"2023-04-23 06:00:00","co2_corrected":467.0,"temp":13.095963,"Sensor ID":"Bs32202","Node ID":258,"Location":"Reservoir Ave Elementary","Latitude":41.79157,"Longitude":-71.42788,"Installation Date":"11\/17\/2022"},{"datetime":"2023-04-23 05:00:00","co2_corrected":467.0,"temp":12.66189,"Sensor ID":"Bs32202","Node ID":258,"Location":"Reservoir Ave Elementary","Latitude":41.79157,"Longitude":-71.42788,"Installation Date":"11\/17\/2022"},{"datetime":"2023-04-23 04:00:00","co2_corrected":467.0,"temp":12.3000685,"Sensor ID":"Bs32202","Node ID":258,"Location":"Reservoir Ave Elementary","Latitude":41.79157,"Longitude":-71.42788,"Installation Date":"11\/17\/2022"},{"datetime":"2023-04-23 10:00:00","co2_corrected":467.0,"temp":13.5769058333,"Sensor ID":"Bs112202","Node ID":252,"Location":"West End Community Center","Latitude":41.80439,"Longitude":-71.42825,"Installation Date":"9\/2\/2022"},{"datetime":"2023-04-23 09:00:00","co2_corrected":467.0,"temp":12.5267513333,"Sensor ID":"Bs112202","Node ID":252,"Location":"West End Community Center","Latitude":41.80439,"Longitude":-71.42825,"Installation Date":"9\/2\/2022"},{"datetime":"2023-04-23 08:00:00","co2_corrected":466.0,"temp":12.2206841667,"Sensor ID":"Bs112202","Node ID":252,"Location":"West End Community Center","Latitude":41.80439,"Longitude":-71.42825,"Installation Date":"9\/2\/2022"},{"datetime":"2023-04-23 07:00:00","co2_corrected":465.0,"temp":12.7812783333,"Sensor ID":"Bs112202","Node ID":252,"Location":"West End Community Center","Latitude":41.80439,"Longitude":-71.42825,"Installation Date":"9\/2\/2022"},{"datetime":"2023-04-23 06:00:00","co2_corrected":466.0,"temp":12.6857706667,"Sensor ID":"Bs112202","Node ID":252,"Location":"West End Community Center","Latitude":41.80439,"Longitude":-71.42825,"Installation Date":"9\/2\/2022"},{"datetime":"2023-04-23 05:00:00","co2_corrected":466.0,"temp":12.2794318333,"Sensor ID":"Bs112202","Node ID":252,"Location":"West End Community Center","Latitude":41.80439,"Longitude":-71.42825,"Installation Date":"9\/2\/2022"},{"datetime":"2023-04-23 04:00:00","co2_corrected":467.0,"temp":12.0185033333,"Sensor ID":"Bs112202","Node ID":252,"Location":"West End Community Center","Latitude":41.80439,"Longitude":-71.42825,"Installation Date":"9\/2\/2022"},{"datetime":"2023-04-23 10:00:00","co2_corrected":438.0,"temp":15.3339745,"Sensor ID":"Bs12202","Node ID":250,"Location":"Myron J. Francis Elementary","Latitude":41.84094,"Longitude":-71.36093,"Installation Date":"7\/11\/2022"},{"datetime":"2023-04-23 09:00:00","co2_corrected":439.0,"temp":14.4037091667,"Sensor ID":"Bs12202","Node ID":250,"Location":"Myron J. Francis Elementary","Latitude":41.84094,"Longitude":-71.36093,"Installation Date":"7\/11\/2022"},{"datetime":"2023-04-23 08:00:00","co2_corrected":439.0,"temp":14.5758651667,"Sensor ID":"Bs12202","Node ID":250,"Location":"Myron J. Francis Elementary","Latitude":41.84094,"Longitude":-71.36093,"Installation Date":"7\/11\/2022"},{"datetime":"2023-04-23 07:00:00","co2_corrected":438.0,"temp":15.0861768333,"Sensor ID":"Bs12202","Node ID":250,"Location":"Myron J. Francis Elementary","Latitude":41.84094,"Longitude":-71.36093,"Installation Date":"7\/11\/2022"},{"datetime":"2023-04-23 06:00:00","co2_corrected":439.0,"temp":14.7781213333,"Sensor ID":"Bs12202","Node ID":250,"Location":"Myron J. Francis Elementary","Latitude":41.84094,"Longitude":-71.36093,"Installation Date":"7\/11\/2022"},{"datetime":"2023-04-23 05:00:00","co2_corrected":439.0,"temp":14.4327753333,"Sensor ID":"Bs12202","Node ID":250,"Location":"Myron J. Francis Elementary","Latitude":41.84094,"Longitude":-71.36093,"Installation Date":"7\/11\/2022"},{"datetime":"2023-04-23 04:00:00","co2_corrected":441.0,"temp":14.1177603333,"Sensor ID":"Bs12202","Node ID":250,"Location":"Myron J. Francis Elementary","Latitude":41.84094,"Longitude":-71.36093,"Installation Date":"7\/11\/2022"},{"datetime":"2023-04-23 10:00:00","co2_corrected":445.0,"temp":16.2008453333,"Sensor ID":"Bs182202","Node ID":269,"Location":"Brown-Fox Point Early Childhood Education Center","Latitude":41.82467,"Longitude":-71.3975,"Installation Date":"2\/2\/2023"},{"datetime":"2023-04-23 09:00:00","co2_corrected":445.0,"temp":15.1984888333,"Sensor ID":"Bs182202","Node ID":269,"Location":"Brown-Fox Point Early Childhood Education Center","Latitude":41.82467,"Longitude":-71.3975,"Installation Date":"2\/2\/2023"},{"datetime":"2023-04-23 08:00:00","co2_corrected":443.0,"temp":15.3013235,"Sensor ID":"Bs182202","Node ID":269,"Location":"Brown-Fox Point Early Childhood Education Center","Latitude":41.82467,"Longitude":-71.3975,"Installation Date":"2\/2\/2023"},{"datetime":"2023-04-23 07:00:00","co2_corrected":445.0,"temp":15.9883611667,"Sensor ID":"Bs182202","Node ID":269,"Location":"Brown-Fox Point Early Childhood Education Center","Latitude":41.82467,"Longitude":-71.3975,"Installation Date":"2\/2\/2023"},{"datetime":"2023-04-23 06:00:00","co2_corrected":444.0,"temp":15.697736,"Sensor ID":"Bs182202","Node ID":269,"Location":"Brown-Fox Point Early Childhood Education Center","Latitude":41.82467,"Longitude":-71.3975,"Installation Date":"2\/2\/2023"},{"datetime":"2023-04-23 05:00:00","co2_corrected":445.0,"temp":15.480543,"Sensor ID":"Bs182202","Node ID":269,"Location":"Brown-Fox Point Early Childhood Education Center","Latitude":41.82467,"Longitude":-71.3975,"Installation Date":"2\/2\/2023"},{"datetime":"2023-04-23 04:00:00","co2_corrected":448.0,"temp":15.0368978333,"Sensor ID":"Bs182202","Node ID":269,"Location":"Brown-Fox Point Early Childhood Education Center","Latitude":41.82467,"Longitude":-71.3975,"Installation Date":"2\/2\/2023"},{"datetime":"2023-04-23 10:00:00","co2_corrected":445.0,"temp":14.7455025,"Sensor ID":"Bs232202","Node ID":265,"Location":"Rhode Island College","Latitude":41.84212,"Longitude":-71.46526,"Installation Date":"3\/16\/2023"},{"datetime":"2023-04-23 09:00:00","co2_corrected":442.0,"temp":14.1907516667,"Sensor ID":"Bs232202","Node ID":265,"Location":"Rhode Island College","Latitude":41.84212,"Longitude":-71.46526,"Installation Date":"3\/16\/2023"},{"datetime":"2023-04-23 08:00:00","co2_corrected":443.0,"temp":14.029057,"Sensor ID":"Bs232202","Node ID":265,"Location":"Rhode Island College","Latitude":41.84212,"Longitude":-71.46526,"Installation Date":"3\/16\/2023"},{"datetime":"2023-04-23 07:00:00","co2_corrected":443.0,"temp":14.3876365,"Sensor ID":"Bs232202","Node ID":265,"Location":"Rhode Island College","Latitude":41.84212,"Longitude":-71.46526,"Installation Date":"3\/16\/2023"},{"datetime":"2023-04-23 06:00:00","co2_corrected":443.0,"temp":14.0271083333,"Sensor ID":"Bs232202","Node ID":265,"Location":"Rhode Island College","Latitude":41.84212,"Longitude":-71.46526,"Installation Date":"3\/16\/2023"},{"datetime":"2023-04-23 05:00:00","co2_corrected":444.0,"temp":13.5671713333,"Sensor ID":"Bs232202","Node ID":265,"Location":"Rhode Island College","Latitude":41.84212,"Longitude":-71.46526,"Installation Date":"3\/16\/2023"},{"datetime":"2023-04-23 04:00:00","co2_corrected":444.0,"temp":13.4354325,"Sensor ID":"Bs232202","Node ID":265,"Location":"Rhode Island College","Latitude":41.84212,"Longitude":-71.46526,"Installation Date":"3\/16\/2023"},{"datetime":"2023-04-23 09:00:00","co2_corrected":453.0,"temp":11.9578881667,"Sensor ID":"Bs242202","Node ID":268,"Location":"Providence College","Latitude":41.84272,"Longitude":-71.43888,"Installation Date":"3\/16\/2023"},{"datetime":"2023-04-23 08:00:00","co2_corrected":453.0,"temp":11.7836208333,"Sensor ID":"Bs242202","Node ID":268,"Location":"Providence College","Latitude":41.84272,"Longitude":-71.43888,"Installation Date":"3\/16\/2023"},{"datetime":"2023-04-23 07:00:00","co2_corrected":453.0,"temp":12.1644095,"Sensor ID":"Bs242202","Node ID":268,"Location":"Providence College","Latitude":41.84272,"Longitude":-71.43888,"Installation Date":"3\/16\/2023"},{"datetime":"2023-04-23 06:00:00","co2_corrected":453.0,"temp":11.9643335,"Sensor ID":"Bs242202","Node ID":268,"Location":"Providence College","Latitude":41.84272,"Longitude":-71.43888,"Installation Date":"3\/16\/2023"},{"datetime":"2023-04-23 05:00:00","co2_corrected":453.0,"temp":11.6688275,"Sensor ID":"Bs242202","Node ID":268,"Location":"Providence College","Latitude":41.84272,"Longitude":-71.43888,"Installation Date":"3\/16\/2023"},{"datetime":"2023-04-23 04:00:00","co2_corrected":454.0,"temp":11.7176123333,"Sensor ID":"Bs242202","Node ID":268,"Location":"Providence College","Latitude":41.84272,"Longitude":-71.43888,"Installation Date":"3\/16\/2023"},{"datetime":-1,"co2_corrected":-1.0,"temp":-1.0,"Sensor ID":"Bs52202","Node ID":264,"Location":"E-Cubed Academy Senior High","Latitude":41.85417,"Longitude":-71.43444,"Installation Date":"11\/17\/2022"},{"datetime":-1,"co2_corrected":-1.0,"temp":-1.0,"Sensor ID":"Bs62202","Node ID":267,"Location":"Rochambeau Library","Latitude":41.84621,"Longitude":-71.39663,"Installation Date":"8\/25\/2022"},{"datetime":-1,"co2_corrected":-1.0,"temp":-1.0,"Sensor ID":"Bs82202","Node ID":274,"Location":"Alpert Medical School","Latitude":41.81898,"Longitude":-71.40826,"Installation Date":"7\/28\/2022"},{"datetime":-1,"co2_corrected":-1.0,"temp":-1.0,"Sensor ID":"Bs122202","Node ID":255,"Location":"United Way","Latitude":41.81803,"Longitude":-71.44121,"Installation Date":"11\/19\/2022"},{"datetime":-1,"co2_corrected":-1.0,"temp":-1.0,"Sensor ID":"Bs132202","Node ID":257,"Location":"Providence Housing Authority  ","Latitude":41.81714,"Longitude":-71.45533,"Installation Date":"8\/9\/2022"},{"datetime":-1,"co2_corrected":-1.0,"temp":-1.0,"Sensor ID":"Bs142202","Node ID":259,"Location":"CCRI - Liston Campus","Latitude":41.80745,"Longitude":-71.41341,"Installation Date":"10\/27\/2022"},{"datetime":-1,"co2_corrected":-1.0,"temp":-1.0,"Sensor ID":"Bs162202","Node ID":263,"Location":"South Providence Library","Latitude":41.80205,"Longitude":-71.41378,"Installation Date":"8\/25\/2022"},{"datetime":-1,"co2_corrected":-1.0,"temp":-1.0,"Sensor ID":"Bs192202","Node ID":272,"Location":"Rock Spot","Latitude":41.81509,"Longitude":-71.42216,"Installation Date":"12\/15\/2022"},{"datetime":-1,"co2_corrected":-1.0,"temp":-1.0,"Sensor ID":"Bs172202","Node ID":266,"Location":"Blackstone Residence","Latitude":41.83551,"Longitude":-71.38335,"Installation Date":"3\/6\/2023"}]