[{"datetime":1675594800000,"co2_corrected":507.360362772,"temp":-3.9246558333,"Sensor ID":"Bs162202","Node ID":263,"Location":"South Providence Library","Latitude":41.80205,"Longitude":-71.41378},{"datetime":1675594800000,"co2_corrected":518.7963210144,"temp":-7.4789221667,"Sensor ID":"Bs32202","Node ID":258,"Location":"Reservoir Ave Elementary","Latitude":41.79157,"Longitude":-71.42788},{"datetime":1675594800000,"co2_corrected":456.6716811364,"temp":-8.3928373333,"Sensor ID":"Bs42202","Node ID":261,"Location":"Anthony Carnevale Elementary","Latitude":41.81678,"Longitude":-71.46458},{"datetime":1675594800000,"co2_corrected":490.6235958176,"temp":-5.1333085,"Sensor ID":"Bs152202","Node ID":262,"Location":"Main Street Martial Arts","Latitude":41.85521,"Longitude":-71.40042},{"datetime":1675594800000,"co2_corrected":479.1936271392,"temp":-5.5917341667,"Sensor ID":"Bs102202","Node ID":251,"Location":"Zuccolo Recreation Center","Latitude":41.82287,"Longitude":-71.43067},{"datetime":1675594800000,"co2_corrected":476.9417710064,"temp":-4.1221148333,"Sensor ID":"Bs82202","Node ID":274,"Location":"Alpert Medical School","Latitude":41.81898,"Longitude":-71.40826},{"datetime":1675594800000,"co2_corrected":486.0903856053,"temp":-4.6345566667,"Sensor ID":"Bs22202","Node ID":254,"Location":"Silver Lake Residence","Latitude":41.81052,"Longitude":-71.44752},{"datetime":null,"co2_corrected":null,"temp":null,"Sensor ID":"Bs12202","Node ID":250,"Location":"Myron J. Francis Elementary","Latitude":41.84094,"Longitude":-71.36093},{"datetime":null,"co2_corrected":null,"temp":null,"Sensor ID":"Bs52202","Node ID":264,"Location":"E-Cubed Academy Senior High","Latitude":41.85417,"Longitude":-71.43444},{"datetime":null,"co2_corrected":null,"temp":null,"Sensor ID":"Bs62202","Node ID":267,"Location":"Rochambeau Library","Latitude":41.84621,"Longitude":-71.39663},{"datetime":null,"co2_corrected":null,"temp":null,"Sensor ID":"Bs72202","Node ID":270,"Location":"Smith Hill Library","Latitude":41.83549,"Longitude":-71.42217},{"datetime":null,"co2_corrected":null,"temp":null,"Sensor ID":"Bs92202","Node ID":276,"Location":"Department of Public Works","Latitude":41.7952,"Longitude":-71.39784},{"datetime":null,"co2_corrected":null,"temp":null,"Sensor ID":"Bs112202","Node ID":252,"Location":"West End Community Center","Latitude":41.80439,"Longitude":-71.42825},{"datetime":null,"co2_corrected":null,"temp":null,"Sensor ID":"Bs122202","Node ID":255,"Location":"United Way","Latitude":41.81803,"Longitude":-71.44121},{"datetime":null,"co2_corrected":null,"temp":null,"Sensor ID":"Bs132202","Node ID":255,"Location":"Providence Housing Authority  ","Latitude":41.81714,"Longitude":-71.45533},{"datetime":null,"co2_corrected":null,"temp":null,"Sensor ID":"Bs142202","Node ID":259,"Location":"CCRI - Liston Campus","Latitude":41.80745,"Longitude":-71.41341},{"datetime":null,"co2_corrected":null,"temp":null,"Sensor ID":"Bs192202","Node ID":272,"Location":"Rock Spot","Latitude":41.81509,"Longitude":-71.42216}]