[{"datetime":"2023-05-15 03:00:00","co2_corrected":448.0,"temp":13.2274008333,"Sensor ID":"Bs12202","Node ID":250,"Location":"Myron J. Francis Elementary","Latitude":41.84094,"Longitude":-71.36093,"Installation Date":"7\/11\/2022"},{"datetime":"2023-05-15 04:00:00","co2_corrected":454.0,"temp":12.3985423333,"Sensor ID":"Bs12202","Node ID":250,"Location":"Myron J. Francis Elementary","Latitude":41.84094,"Longitude":-71.36093,"Installation Date":"7\/11\/2022"},{"datetime":"2023-05-15 05:00:00","co2_corrected":452.0,"temp":11.4916243333,"Sensor ID":"Bs12202","Node ID":250,"Location":"Myron J. Francis Elementary","Latitude":41.84094,"Longitude":-71.36093,"Installation Date":"7\/11\/2022"},{"datetime":"2023-05-15 06:00:00","co2_corrected":446.0,"temp":12.9889766667,"Sensor ID":"Bs12202","Node ID":250,"Location":"Myron J. Francis Elementary","Latitude":41.84094,"Longitude":-71.36093,"Installation Date":"7\/11\/2022"},{"datetime":"2023-05-15 07:00:00","co2_corrected":442.0,"temp":16.1718841667,"Sensor ID":"Bs12202","Node ID":250,"Location":"Myron J. Francis Elementary","Latitude":41.84094,"Longitude":-71.36093,"Installation Date":"7\/11\/2022"},{"datetime":"2023-05-15 08:00:00","co2_corrected":440.0,"temp":25.675119,"Sensor ID":"Bs12202","Node ID":250,"Location":"Myron J. Francis Elementary","Latitude":41.84094,"Longitude":-71.36093,"Installation Date":"7\/11\/2022"},{"datetime":"2023-05-15 09:00:00","co2_corrected":434.0,"temp":27.228183,"Sensor ID":"Bs12202","Node ID":250,"Location":"Myron J. Francis Elementary","Latitude":41.84094,"Longitude":-71.36093,"Installation Date":"7\/11\/2022"},{"datetime":"2023-05-15 03:00:00","co2_corrected":482.0,"temp":10.15521,"Sensor ID":"Bs32202","Node ID":258,"Location":"Reservoir Ave Elementary","Latitude":41.79157,"Longitude":-71.42788,"Installation Date":"11\/17\/2022"},{"datetime":"2023-05-15 04:00:00","co2_corrected":483.0,"temp":9.4044048333,"Sensor ID":"Bs32202","Node ID":258,"Location":"Reservoir Ave Elementary","Latitude":41.79157,"Longitude":-71.42788,"Installation Date":"11\/17\/2022"},{"datetime":"2023-05-15 05:00:00","co2_corrected":482.0,"temp":9.625526,"Sensor ID":"Bs32202","Node ID":258,"Location":"Reservoir Ave Elementary","Latitude":41.79157,"Longitude":-71.42788,"Installation Date":"11\/17\/2022"},{"datetime":"2023-05-15 06:00:00","co2_corrected":482.0,"temp":11.2765216667,"Sensor ID":"Bs32202","Node ID":258,"Location":"Reservoir Ave Elementary","Latitude":41.79157,"Longitude":-71.42788,"Installation Date":"11\/17\/2022"},{"datetime":"2023-05-15 07:00:00","co2_corrected":480.0,"temp":17.4347695,"Sensor ID":"Bs32202","Node ID":258,"Location":"Reservoir Ave Elementary","Latitude":41.79157,"Longitude":-71.42788,"Installation Date":"11\/17\/2022"},{"datetime":"2023-05-15 08:00:00","co2_corrected":473.0,"temp":23.1517246667,"Sensor ID":"Bs32202","Node ID":258,"Location":"Reservoir Ave Elementary","Latitude":41.79157,"Longitude":-71.42788,"Installation Date":"11\/17\/2022"},{"datetime":"2023-05-15 09:00:00","co2_corrected":466.0,"temp":27.1664403333,"Sensor ID":"Bs32202","Node ID":258,"Location":"Reservoir Ave Elementary","Latitude":41.79157,"Longitude":-71.42788,"Installation Date":"11\/17\/2022"},{"datetime":"2023-05-15 03:00:00","co2_corrected":460.0,"temp":9.337117,"Sensor ID":"Bs232202","Node ID":265,"Location":"Rhode Island College","Latitude":41.84212,"Longitude":-71.46526,"Installation Date":"3\/16\/2023"},{"datetime":"2023-05-15 04:00:00","co2_corrected":462.0,"temp":9.0086871667,"Sensor ID":"Bs232202","Node ID":265,"Location":"Rhode Island College","Latitude":41.84212,"Longitude":-71.46526,"Installation Date":"3\/16\/2023"},{"datetime":"2023-05-15 05:00:00","co2_corrected":467.0,"temp":8.5008613333,"Sensor ID":"Bs232202","Node ID":265,"Location":"Rhode Island College","Latitude":41.84212,"Longitude":-71.46526,"Installation Date":"3\/16\/2023"},{"datetime":"2023-05-15 06:00:00","co2_corrected":463.0,"temp":12.3868768333,"Sensor ID":"Bs232202","Node ID":265,"Location":"Rhode Island College","Latitude":41.84212,"Longitude":-71.46526,"Installation Date":"3\/16\/2023"},{"datetime":"2023-05-15 07:00:00","co2_corrected":451.0,"temp":16.5751923333,"Sensor ID":"Bs232202","Node ID":265,"Location":"Rhode Island College","Latitude":41.84212,"Longitude":-71.46526,"Installation Date":"3\/16\/2023"},{"datetime":"2023-05-15 08:00:00","co2_corrected":443.0,"temp":24.7851581667,"Sensor ID":"Bs232202","Node ID":265,"Location":"Rhode Island College","Latitude":41.84212,"Longitude":-71.46526,"Installation Date":"3\/16\/2023"},{"datetime":"2023-05-15 09:00:00","co2_corrected":439.0,"temp":28.9650193333,"Sensor ID":"Bs232202","Node ID":265,"Location":"Rhode Island College","Latitude":41.84212,"Longitude":-71.46526,"Installation Date":"3\/16\/2023"},{"datetime":"2023-05-15 03:00:00","co2_corrected":454.0,"temp":9.9478895,"Sensor ID":"Bs192202","Node ID":272,"Location":"Rock Spot","Latitude":41.81509,"Longitude":-71.42216,"Installation Date":"12\/15\/2022"},{"datetime":"2023-05-15 04:00:00","co2_corrected":458.0,"temp":9.4656901667,"Sensor ID":"Bs192202","Node ID":272,"Location":"Rock Spot","Latitude":41.81509,"Longitude":-71.42216,"Installation Date":"12\/15\/2022"},{"datetime":"2023-05-15 05:00:00","co2_corrected":459.0,"temp":8.9826706667,"Sensor ID":"Bs192202","Node ID":272,"Location":"Rock Spot","Latitude":41.81509,"Longitude":-71.42216,"Installation Date":"12\/15\/2022"},{"datetime":"2023-05-15 06:00:00","co2_corrected":457.0,"temp":10.4131015,"Sensor ID":"Bs192202","Node ID":272,"Location":"Rock Spot","Latitude":41.81509,"Longitude":-71.42216,"Installation Date":"12\/15\/2022"},{"datetime":"2023-05-15 07:00:00","co2_corrected":453.0,"temp":16.290912,"Sensor ID":"Bs192202","Node ID":272,"Location":"Rock Spot","Latitude":41.81509,"Longitude":-71.42216,"Installation Date":"12\/15\/2022"},{"datetime":"2023-05-15 08:00:00","co2_corrected":449.0,"temp":25.1522816667,"Sensor ID":"Bs192202","Node ID":272,"Location":"Rock Spot","Latitude":41.81509,"Longitude":-71.42216,"Installation Date":"12\/15\/2022"},{"datetime":"2023-05-15 09:00:00","co2_corrected":447.0,"temp":27.6543566667,"Sensor ID":"Bs192202","Node ID":272,"Location":"Rock Spot","Latitude":41.81509,"Longitude":-71.42216,"Installation Date":"12\/15\/2022"},{"datetime":"2023-05-15 03:00:00","co2_corrected":460.0,"temp":12.8803568333,"Sensor ID":"Bs72202","Node ID":270,"Location":"Smith Hill Library","Latitude":41.83549,"Longitude":-71.42217,"Installation Date":"8\/25\/2022"},{"datetime":"2023-05-15 04:00:00","co2_corrected":463.0,"temp":12.1412028333,"Sensor ID":"Bs72202","Node ID":270,"Location":"Smith Hill Library","Latitude":41.83549,"Longitude":-71.42217,"Installation Date":"8\/25\/2022"},{"datetime":"2023-05-15 05:00:00","co2_corrected":467.0,"temp":11.2073446667,"Sensor ID":"Bs72202","Node ID":270,"Location":"Smith Hill Library","Latitude":41.83549,"Longitude":-71.42217,"Installation Date":"8\/25\/2022"},{"datetime":"2023-05-15 06:00:00","co2_corrected":465.0,"temp":13.1783126667,"Sensor ID":"Bs72202","Node ID":270,"Location":"Smith Hill Library","Latitude":41.83549,"Longitude":-71.42217,"Installation Date":"8\/25\/2022"},{"datetime":"2023-05-15 07:00:00","co2_corrected":459.0,"temp":21.0148921667,"Sensor ID":"Bs72202","Node ID":270,"Location":"Smith Hill Library","Latitude":41.83549,"Longitude":-71.42217,"Installation Date":"8\/25\/2022"},{"datetime":"2023-05-15 08:00:00","co2_corrected":452.0,"temp":25.6312845,"Sensor ID":"Bs72202","Node ID":270,"Location":"Smith Hill Library","Latitude":41.83549,"Longitude":-71.42217,"Installation Date":"8\/25\/2022"},{"datetime":"2023-05-15 09:00:00","co2_corrected":448.0,"temp":28.8032938333,"Sensor ID":"Bs72202","Node ID":270,"Location":"Smith Hill Library","Latitude":41.83549,"Longitude":-71.42217,"Installation Date":"8\/25\/2022"},{"datetime":"2023-05-15 03:00:00","co2_corrected":461.0,"temp":11.8323866667,"Sensor ID":"Bs62202","Node ID":267,"Location":"Rochambeau Library","Latitude":41.84621,"Longitude":-71.39663,"Installation Date":"8\/25\/2022"},{"datetime":"2023-05-15 04:00:00","co2_corrected":462.0,"temp":11.2763611667,"Sensor ID":"Bs62202","Node ID":267,"Location":"Rochambeau Library","Latitude":41.84621,"Longitude":-71.39663,"Installation Date":"8\/25\/2022"},{"datetime":"2023-05-15 05:00:00","co2_corrected":466.0,"temp":10.9924828333,"Sensor ID":"Bs62202","Node ID":267,"Location":"Rochambeau Library","Latitude":41.84621,"Longitude":-71.39663,"Installation Date":"8\/25\/2022"},{"datetime":"2023-05-15 06:00:00","co2_corrected":467.0,"temp":13.5610123333,"Sensor ID":"Bs62202","Node ID":267,"Location":"Rochambeau Library","Latitude":41.84621,"Longitude":-71.39663,"Installation Date":"8\/25\/2022"},{"datetime":"2023-05-15 07:00:00","co2_corrected":466.0,"temp":19.8926715,"Sensor ID":"Bs62202","Node ID":267,"Location":"Rochambeau Library","Latitude":41.84621,"Longitude":-71.39663,"Installation Date":"8\/25\/2022"},{"datetime":"2023-05-15 08:00:00","co2_corrected":464.0,"temp":26.3691028333,"Sensor ID":"Bs62202","Node ID":267,"Location":"Rochambeau Library","Latitude":41.84621,"Longitude":-71.39663,"Installation Date":"8\/25\/2022"},{"datetime":"2023-05-15 09:00:00","co2_corrected":456.0,"temp":29.3863406667,"Sensor ID":"Bs62202","Node ID":267,"Location":"Rochambeau Library","Latitude":41.84621,"Longitude":-71.39663,"Installation Date":"8\/25\/2022"},{"datetime":"2023-05-15 03:00:00","co2_corrected":447.0,"temp":12.6138741667,"Sensor ID":"Bs152202","Node ID":262,"Location":"Main Street Martial Arts","Latitude":41.85521,"Longitude":-71.40042,"Installation Date":"11\/11\/2022"},{"datetime":"2023-05-15 04:00:00","co2_corrected":453.0,"temp":11.8983243333,"Sensor ID":"Bs152202","Node ID":262,"Location":"Main Street Martial Arts","Latitude":41.85521,"Longitude":-71.40042,"Installation Date":"11\/11\/2022"},{"datetime":"2023-05-15 05:00:00","co2_corrected":457.0,"temp":11.1095675,"Sensor ID":"Bs152202","Node ID":262,"Location":"Main Street Martial Arts","Latitude":41.85521,"Longitude":-71.40042,"Installation Date":"11\/11\/2022"},{"datetime":"2023-05-15 06:00:00","co2_corrected":458.0,"temp":12.7599583333,"Sensor ID":"Bs152202","Node ID":262,"Location":"Main Street Martial Arts","Latitude":41.85521,"Longitude":-71.40042,"Installation Date":"11\/11\/2022"},{"datetime":"2023-05-15 07:00:00","co2_corrected":454.0,"temp":16.3641156667,"Sensor ID":"Bs152202","Node ID":262,"Location":"Main Street Martial Arts","Latitude":41.85521,"Longitude":-71.40042,"Installation Date":"11\/11\/2022"},{"datetime":"2023-05-15 08:00:00","co2_corrected":447.0,"temp":23.6073801667,"Sensor ID":"Bs152202","Node ID":262,"Location":"Main Street Martial Arts","Latitude":41.85521,"Longitude":-71.40042,"Installation Date":"11\/11\/2022"},{"datetime":"2023-05-15 09:00:00","co2_corrected":444.0,"temp":26.941267,"Sensor ID":"Bs152202","Node ID":262,"Location":"Main Street Martial Arts","Latitude":41.85521,"Longitude":-71.40042,"Installation Date":"11\/11\/2022"},{"datetime":"2023-05-15 03:00:00","co2_corrected":447.0,"temp":14.967411,"Sensor ID":"Bs182202","Node ID":269,"Location":"Brown-Fox Point Early Childhood Education Center","Latitude":41.82467,"Longitude":-71.3975,"Installation Date":"2\/2\/2023"},{"datetime":"2023-05-15 04:00:00","co2_corrected":450.0,"temp":14.2429343333,"Sensor ID":"Bs182202","Node ID":269,"Location":"Brown-Fox Point Early Childhood Education Center","Latitude":41.82467,"Longitude":-71.3975,"Installation Date":"2\/2\/2023"},{"datetime":"2023-05-15 05:00:00","co2_corrected":454.0,"temp":13.4148031667,"Sensor ID":"Bs182202","Node ID":269,"Location":"Brown-Fox Point Early Childhood Education Center","Latitude":41.82467,"Longitude":-71.3975,"Installation Date":"2\/2\/2023"},{"datetime":"2023-05-15 06:00:00","co2_corrected":453.0,"temp":14.4311171667,"Sensor ID":"Bs182202","Node ID":269,"Location":"Brown-Fox Point Early Childhood Education Center","Latitude":41.82467,"Longitude":-71.3975,"Installation Date":"2\/2\/2023"},{"datetime":"2023-05-15 07:00:00","co2_corrected":455.0,"temp":17.2377963333,"Sensor ID":"Bs182202","Node ID":269,"Location":"Brown-Fox Point Early Childhood Education Center","Latitude":41.82467,"Longitude":-71.3975,"Installation Date":"2\/2\/2023"},{"datetime":"2023-05-15 08:00:00","co2_corrected":452.0,"temp":21.7646878333,"Sensor ID":"Bs182202","Node ID":269,"Location":"Brown-Fox Point Early Childhood Education Center","Latitude":41.82467,"Longitude":-71.3975,"Installation Date":"2\/2\/2023"},{"datetime":"2023-05-15 09:00:00","co2_corrected":448.0,"temp":27.0212541667,"Sensor ID":"Bs182202","Node ID":269,"Location":"Brown-Fox Point Early Childhood Education Center","Latitude":41.82467,"Longitude":-71.3975,"Installation Date":"2\/2\/2023"},{"datetime":"2023-05-15 03:00:00","co2_corrected":448.0,"temp":10.943419,"Sensor ID":"Bs242202","Node ID":268,"Location":"Providence College","Latitude":41.84272,"Longitude":-71.43888,"Installation Date":"3\/16\/2023"},{"datetime":"2023-05-15 04:00:00","co2_corrected":449.0,"temp":10.0708013333,"Sensor ID":"Bs242202","Node ID":268,"Location":"Providence College","Latitude":41.84272,"Longitude":-71.43888,"Installation Date":"3\/16\/2023"},{"datetime":"2023-05-15 05:00:00","co2_corrected":449.0,"temp":9.5428413333,"Sensor ID":"Bs242202","Node ID":268,"Location":"Providence College","Latitude":41.84272,"Longitude":-71.43888,"Installation Date":"3\/16\/2023"},{"datetime":"2023-05-15 06:00:00","co2_corrected":447.0,"temp":10.188526,"Sensor ID":"Bs242202","Node ID":268,"Location":"Providence College","Latitude":41.84272,"Longitude":-71.43888,"Installation Date":"3\/16\/2023"},{"datetime":"2023-05-15 07:00:00","co2_corrected":443.0,"temp":13.501388,"Sensor ID":"Bs242202","Node ID":268,"Location":"Providence College","Latitude":41.84272,"Longitude":-71.43888,"Installation Date":"3\/16\/2023"},{"datetime":"2023-05-15 08:00:00","co2_corrected":436.0,"temp":24.2618993333,"Sensor ID":"Bs242202","Node ID":268,"Location":"Providence College","Latitude":41.84272,"Longitude":-71.43888,"Installation Date":"3\/16\/2023"},{"datetime":"2023-05-15 09:00:00","co2_corrected":431.0,"temp":27.3082575,"Sensor ID":"Bs242202","Node ID":268,"Location":"Providence College","Latitude":41.84272,"Longitude":-71.43888,"Installation Date":"3\/16\/2023"},{"datetime":"2023-05-15 03:00:00","co2_corrected":472.0,"temp":13.6437771667,"Sensor ID":"Bs82202","Node ID":274,"Location":"Alpert Medical School","Latitude":41.81898,"Longitude":-71.40826,"Installation Date":"7\/28\/2022"},{"datetime":"2023-05-15 04:00:00","co2_corrected":474.0,"temp":13.137539,"Sensor ID":"Bs82202","Node ID":274,"Location":"Alpert Medical School","Latitude":41.81898,"Longitude":-71.40826,"Installation Date":"7\/28\/2022"},{"datetime":"2023-05-15 05:00:00","co2_corrected":473.0,"temp":12.5891411667,"Sensor ID":"Bs82202","Node ID":274,"Location":"Alpert Medical School","Latitude":41.81898,"Longitude":-71.40826,"Installation Date":"7\/28\/2022"},{"datetime":"2023-05-15 06:00:00","co2_corrected":475.0,"temp":16.091714,"Sensor ID":"Bs82202","Node ID":274,"Location":"Alpert Medical School","Latitude":41.81898,"Longitude":-71.40826,"Installation Date":"7\/28\/2022"},{"datetime":"2023-05-15 07:00:00","co2_corrected":473.0,"temp":21.0120955,"Sensor ID":"Bs82202","Node ID":274,"Location":"Alpert Medical School","Latitude":41.81898,"Longitude":-71.40826,"Installation Date":"7\/28\/2022"},{"datetime":"2023-05-15 08:00:00","co2_corrected":468.0,"temp":25.4378736667,"Sensor ID":"Bs82202","Node ID":274,"Location":"Alpert Medical School","Latitude":41.81898,"Longitude":-71.40826,"Installation Date":"7\/28\/2022"},{"datetime":"2023-05-15 09:00:00","co2_corrected":463.0,"temp":27.6043503333,"Sensor ID":"Bs82202","Node ID":274,"Location":"Alpert Medical School","Latitude":41.81898,"Longitude":-71.40826,"Installation Date":"7\/28\/2022"},{"datetime":"2023-05-15 03:00:00","co2_corrected":459.0,"temp":12.1297765,"Sensor ID":"Bs102202","Node ID":251,"Location":"Zuccolo Recreation Center","Latitude":41.82287,"Longitude":-71.43067,"Installation Date":"10\/4\/2022"},{"datetime":"2023-05-15 04:00:00","co2_corrected":463.0,"temp":11.4883795,"Sensor ID":"Bs102202","Node ID":251,"Location":"Zuccolo Recreation Center","Latitude":41.82287,"Longitude":-71.43067,"Installation Date":"10\/4\/2022"},{"datetime":"2023-05-15 05:00:00","co2_corrected":463.0,"temp":10.9652263333,"Sensor ID":"Bs102202","Node ID":251,"Location":"Zuccolo Recreation Center","Latitude":41.82287,"Longitude":-71.43067,"Installation Date":"10\/4\/2022"},{"datetime":"2023-05-15 06:00:00","co2_corrected":461.0,"temp":11.8470908333,"Sensor ID":"Bs102202","Node ID":251,"Location":"Zuccolo Recreation Center","Latitude":41.82287,"Longitude":-71.43067,"Installation Date":"10\/4\/2022"},{"datetime":"2023-05-15 07:00:00","co2_corrected":456.0,"temp":13.9379881667,"Sensor ID":"Bs102202","Node ID":251,"Location":"Zuccolo Recreation Center","Latitude":41.82287,"Longitude":-71.43067,"Installation Date":"10\/4\/2022"},{"datetime":"2023-05-15 08:00:00","co2_corrected":449.0,"temp":17.5327981667,"Sensor ID":"Bs102202","Node ID":251,"Location":"Zuccolo Recreation Center","Latitude":41.82287,"Longitude":-71.43067,"Installation Date":"10\/4\/2022"},{"datetime":"2023-05-15 09:00:00","co2_corrected":444.0,"temp":24.393348,"Sensor ID":"Bs102202","Node ID":251,"Location":"Zuccolo Recreation Center","Latitude":41.82287,"Longitude":-71.43067,"Installation Date":"10\/4\/2022"},{"datetime":"2023-05-15 03:00:00","co2_corrected":450.0,"temp":14.9261401667,"Sensor ID":"Bs92202","Node ID":276,"Location":"Department of Public Works","Latitude":41.7952,"Longitude":-71.39784,"Installation Date":"8\/9\/2022"},{"datetime":"2023-05-15 04:00:00","co2_corrected":453.0,"temp":14.2019221667,"Sensor ID":"Bs92202","Node ID":276,"Location":"Department of Public Works","Latitude":41.7952,"Longitude":-71.39784,"Installation Date":"8\/9\/2022"},{"datetime":"2023-05-15 05:00:00","co2_corrected":457.0,"temp":13.5736088333,"Sensor ID":"Bs92202","Node ID":276,"Location":"Department of Public Works","Latitude":41.7952,"Longitude":-71.39784,"Installation Date":"8\/9\/2022"},{"datetime":"2023-05-15 06:00:00","co2_corrected":459.0,"temp":16.8056091667,"Sensor ID":"Bs92202","Node ID":276,"Location":"Department of Public Works","Latitude":41.7952,"Longitude":-71.39784,"Installation Date":"8\/9\/2022"},{"datetime":"2023-05-15 07:00:00","co2_corrected":456.0,"temp":20.7721343333,"Sensor ID":"Bs92202","Node ID":276,"Location":"Department of Public Works","Latitude":41.7952,"Longitude":-71.39784,"Installation Date":"8\/9\/2022"},{"datetime":"2023-05-15 08:00:00","co2_corrected":454.0,"temp":24.3694116667,"Sensor ID":"Bs92202","Node ID":276,"Location":"Department of Public Works","Latitude":41.7952,"Longitude":-71.39784,"Installation Date":"8\/9\/2022"},{"datetime":"2023-05-15 09:00:00","co2_corrected":442.0,"temp":26.2344656667,"Sensor ID":"Bs92202","Node ID":276,"Location":"Department of Public Works","Latitude":41.7952,"Longitude":-71.39784,"Installation Date":"8\/9\/2022"},{"datetime":"2023-05-15 03:00:00","co2_corrected":458.0,"temp":12.1853423333,"Sensor ID":"Bs22202","Node ID":254,"Location":"Silver Lake Residence","Latitude":41.81052,"Longitude":-71.44752,"Installation Date":"12\/1\/2022"},{"datetime":"2023-05-15 04:00:00","co2_corrected":460.0,"temp":11.3906626667,"Sensor ID":"Bs22202","Node ID":254,"Location":"Silver Lake Residence","Latitude":41.81052,"Longitude":-71.44752,"Installation Date":"12\/1\/2022"},{"datetime":"2023-05-15 05:00:00","co2_corrected":458.0,"temp":11.1578661667,"Sensor ID":"Bs22202","Node ID":254,"Location":"Silver Lake Residence","Latitude":41.81052,"Longitude":-71.44752,"Installation Date":"12\/1\/2022"},{"datetime":"2023-05-15 06:00:00","co2_corrected":454.0,"temp":11.9268471667,"Sensor ID":"Bs22202","Node ID":254,"Location":"Silver Lake Residence","Latitude":41.81052,"Longitude":-71.44752,"Installation Date":"12\/1\/2022"},{"datetime":"2023-05-15 07:00:00","co2_corrected":449.0,"temp":14.369553,"Sensor ID":"Bs22202","Node ID":254,"Location":"Silver Lake Residence","Latitude":41.81052,"Longitude":-71.44752,"Installation Date":"12\/1\/2022"},{"datetime":"2023-05-15 08:00:00","co2_corrected":442.0,"temp":18.0338401667,"Sensor ID":"Bs22202","Node ID":254,"Location":"Silver Lake Residence","Latitude":41.81052,"Longitude":-71.44752,"Installation Date":"12\/1\/2022"},{"datetime":"2023-05-15 09:00:00","co2_corrected":439.0,"temp":21.5816128333,"Sensor ID":"Bs22202","Node ID":254,"Location":"Silver Lake Residence","Latitude":41.81052,"Longitude":-71.44752,"Installation Date":"12\/1\/2022"},{"datetime":-1,"co2_corrected":-1.0,"temp":-1.0,"Sensor ID":"Bs42202","Node ID":261,"Location":"Anthony Carnevale Elementary","Latitude":41.81678,"Longitude":-71.46458,"Installation Date":"12\/6\/2022"},{"datetime":-1,"co2_corrected":-1.0,"temp":-1.0,"Sensor ID":"Bs52202","Node ID":264,"Location":"E-Cubed Academy Senior High","Latitude":41.85417,"Longitude":-71.43444,"Installation Date":"11\/17\/2022"},{"datetime":-1,"co2_corrected":-1.0,"temp":-1.0,"Sensor ID":"Bs112202","Node ID":252,"Location":"West End Community Center","Latitude":41.80439,"Longitude":-71.42825,"Installation Date":"9\/2\/2022"},{"datetime":-1,"co2_corrected":-1.0,"temp":-1.0,"Sensor ID":"Bs122202","Node ID":255,"Location":"United Way","Latitude":41.81803,"Longitude":-71.44121,"Installation Date":"11\/19\/2022"},{"datetime":-1,"co2_corrected":-1.0,"temp":-1.0,"Sensor ID":"Bs132202","Node ID":257,"Location":"Providence Housing Authority  ","Latitude":41.81714,"Longitude":-71.45533,"Installation Date":"8\/9\/2022"},{"datetime":-1,"co2_corrected":-1.0,"temp":-1.0,"Sensor ID":"Bs142202","Node ID":259,"Location":"CCRI - Liston Campus","Latitude":41.80745,"Longitude":-71.41341,"Installation Date":"10\/27\/2022"},{"datetime":-1,"co2_corrected":-1.0,"temp":-1.0,"Sensor ID":"Bs162202","Node ID":263,"Location":"South Providence Library","Latitude":41.80205,"Longitude":-71.41378,"Installation Date":"8\/25\/2022"},{"datetime":-1,"co2_corrected":-1.0,"temp":-1.0,"Sensor ID":"Bs172202","Node ID":266,"Location":"Blackstone Residence","Latitude":41.83551,"Longitude":-71.38335,"Installation Date":"3\/6\/2023"}]