[{"datetime":"2023-04-22 10:00:00","co2_corrected":456.0,"temp":17.594828,"Sensor ID":"Bs72202","Node ID":270,"Location":"Smith Hill Library","Latitude":41.83549,"Longitude":-71.42217,"Installation Date":"8\/25\/2022"},{"datetime":"2023-04-22 09:00:00","co2_corrected":458.0,"temp":15.904004,"Sensor ID":"Bs72202","Node ID":270,"Location":"Smith Hill Library","Latitude":41.83549,"Longitude":-71.42217,"Installation Date":"8\/25\/2022"},{"datetime":"2023-04-22 08:00:00","co2_corrected":461.0,"temp":14.4989371667,"Sensor ID":"Bs72202","Node ID":270,"Location":"Smith Hill Library","Latitude":41.83549,"Longitude":-71.42217,"Installation Date":"8\/25\/2022"},{"datetime":"2023-04-22 07:00:00","co2_corrected":461.0,"temp":13.5454946667,"Sensor ID":"Bs72202","Node ID":270,"Location":"Smith Hill Library","Latitude":41.83549,"Longitude":-71.42217,"Installation Date":"8\/25\/2022"},{"datetime":"2023-04-22 06:00:00","co2_corrected":460.0,"temp":13.1649006667,"Sensor ID":"Bs72202","Node ID":270,"Location":"Smith Hill Library","Latitude":41.83549,"Longitude":-71.42217,"Installation Date":"8\/25\/2022"},{"datetime":"2023-04-22 05:00:00","co2_corrected":461.0,"temp":13.1358148333,"Sensor ID":"Bs72202","Node ID":270,"Location":"Smith Hill Library","Latitude":41.83549,"Longitude":-71.42217,"Installation Date":"8\/25\/2022"},{"datetime":"2023-04-22 04:00:00","co2_corrected":460.0,"temp":13.1854691667,"Sensor ID":"Bs72202","Node ID":270,"Location":"Smith Hill Library","Latitude":41.83549,"Longitude":-71.42217,"Installation Date":"8\/25\/2022"},{"datetime":"2023-04-22 10:00:00","co2_corrected":446.0,"temp":18.915887,"Sensor ID":"Bs92202","Node ID":276,"Location":"Department of Public Works","Latitude":41.7952,"Longitude":-71.39784,"Installation Date":"8\/9\/2022"},{"datetime":"2023-04-22 09:00:00","co2_corrected":450.0,"temp":17.5131656667,"Sensor ID":"Bs92202","Node ID":276,"Location":"Department of Public Works","Latitude":41.7952,"Longitude":-71.39784,"Installation Date":"8\/9\/2022"},{"datetime":"2023-04-22 08:00:00","co2_corrected":452.0,"temp":16.1938908333,"Sensor ID":"Bs92202","Node ID":276,"Location":"Department of Public Works","Latitude":41.7952,"Longitude":-71.39784,"Installation Date":"8\/9\/2022"},{"datetime":"2023-04-22 07:00:00","co2_corrected":453.0,"temp":15.2673625,"Sensor ID":"Bs92202","Node ID":276,"Location":"Department of Public Works","Latitude":41.7952,"Longitude":-71.39784,"Installation Date":"8\/9\/2022"},{"datetime":"2023-04-22 06:00:00","co2_corrected":452.0,"temp":14.8298126667,"Sensor ID":"Bs92202","Node ID":276,"Location":"Department of Public Works","Latitude":41.7952,"Longitude":-71.39784,"Installation Date":"8\/9\/2022"},{"datetime":"2023-04-22 05:00:00","co2_corrected":450.0,"temp":14.7937971667,"Sensor ID":"Bs92202","Node ID":276,"Location":"Department of Public Works","Latitude":41.7952,"Longitude":-71.39784,"Installation Date":"8\/9\/2022"},{"datetime":"2023-04-22 04:00:00","co2_corrected":450.0,"temp":14.581307,"Sensor ID":"Bs92202","Node ID":276,"Location":"Department of Public Works","Latitude":41.7952,"Longitude":-71.39784,"Installation Date":"8\/9\/2022"},{"datetime":"2023-04-22 10:00:00","co2_corrected":451.0,"temp":18.4890961667,"Sensor ID":"Bs182202","Node ID":269,"Location":"Brown-Fox Point Early Childhood Education Center","Latitude":41.82467,"Longitude":-71.3975,"Installation Date":"2\/2\/2023"},{"datetime":"2023-04-22 09:00:00","co2_corrected":452.0,"temp":17.0383493333,"Sensor ID":"Bs182202","Node ID":269,"Location":"Brown-Fox Point Early Childhood Education Center","Latitude":41.82467,"Longitude":-71.3975,"Installation Date":"2\/2\/2023"},{"datetime":"2023-04-22 08:00:00","co2_corrected":457.0,"temp":16.172654,"Sensor ID":"Bs182202","Node ID":269,"Location":"Brown-Fox Point Early Childhood Education Center","Latitude":41.82467,"Longitude":-71.3975,"Installation Date":"2\/2\/2023"},{"datetime":"2023-04-22 07:00:00","co2_corrected":456.0,"temp":15.1501491667,"Sensor ID":"Bs182202","Node ID":269,"Location":"Brown-Fox Point Early Childhood Education Center","Latitude":41.82467,"Longitude":-71.3975,"Installation Date":"2\/2\/2023"},{"datetime":"2023-04-22 06:00:00","co2_corrected":455.0,"temp":14.7966818333,"Sensor ID":"Bs182202","Node ID":269,"Location":"Brown-Fox Point Early Childhood Education Center","Latitude":41.82467,"Longitude":-71.3975,"Installation Date":"2\/2\/2023"},{"datetime":"2023-04-22 05:00:00","co2_corrected":457.0,"temp":14.6523963333,"Sensor ID":"Bs182202","Node ID":269,"Location":"Brown-Fox Point Early Childhood Education Center","Latitude":41.82467,"Longitude":-71.3975,"Installation Date":"2\/2\/2023"},{"datetime":"2023-04-22 04:00:00","co2_corrected":451.0,"temp":14.3735291667,"Sensor ID":"Bs182202","Node ID":269,"Location":"Brown-Fox Point Early Childhood Education Center","Latitude":41.82467,"Longitude":-71.3975,"Installation Date":"2\/2\/2023"},{"datetime":"2023-04-22 10:00:00","co2_corrected":452.0,"temp":16.9271408333,"Sensor ID":"Bs22202","Node ID":254,"Location":"Silver Lake Residence","Latitude":41.81052,"Longitude":-71.44752,"Installation Date":"12\/1\/2022"},{"datetime":"2023-04-22 09:00:00","co2_corrected":457.0,"temp":15.534496,"Sensor ID":"Bs22202","Node ID":254,"Location":"Silver Lake Residence","Latitude":41.81052,"Longitude":-71.44752,"Installation Date":"12\/1\/2022"},{"datetime":"2023-04-22 08:00:00","co2_corrected":457.0,"temp":14.2767973333,"Sensor ID":"Bs22202","Node ID":254,"Location":"Silver Lake Residence","Latitude":41.81052,"Longitude":-71.44752,"Installation Date":"12\/1\/2022"},{"datetime":"2023-04-22 07:00:00","co2_corrected":458.0,"temp":13.288092,"Sensor ID":"Bs22202","Node ID":254,"Location":"Silver Lake Residence","Latitude":41.81052,"Longitude":-71.44752,"Installation Date":"12\/1\/2022"},{"datetime":"2023-04-22 06:00:00","co2_corrected":458.0,"temp":12.887998,"Sensor ID":"Bs22202","Node ID":254,"Location":"Silver Lake Residence","Latitude":41.81052,"Longitude":-71.44752,"Installation Date":"12\/1\/2022"},{"datetime":"2023-04-22 05:00:00","co2_corrected":457.0,"temp":12.8510488333,"Sensor ID":"Bs22202","Node ID":254,"Location":"Silver Lake Residence","Latitude":41.81052,"Longitude":-71.44752,"Installation Date":"12\/1\/2022"},{"datetime":"2023-04-22 04:00:00","co2_corrected":455.0,"temp":12.8487566667,"Sensor ID":"Bs22202","Node ID":254,"Location":"Silver Lake Residence","Latitude":41.81052,"Longitude":-71.44752,"Installation Date":"12\/1\/2022"},{"datetime":"2023-04-22 10:00:00","co2_corrected":469.0,"temp":17.6187143333,"Sensor ID":"Bs82202","Node ID":274,"Location":"Alpert Medical School","Latitude":41.81898,"Longitude":-71.40826,"Installation Date":"7\/28\/2022"},{"datetime":"2023-04-22 09:00:00","co2_corrected":466.0,"temp":15.510525,"Sensor ID":"Bs82202","Node ID":274,"Location":"Alpert Medical School","Latitude":41.81898,"Longitude":-71.40826,"Installation Date":"7\/28\/2022"},{"datetime":"2023-04-22 08:00:00","co2_corrected":468.0,"temp":14.4909496667,"Sensor ID":"Bs82202","Node ID":274,"Location":"Alpert Medical School","Latitude":41.81898,"Longitude":-71.40826,"Installation Date":"7\/28\/2022"},{"datetime":"2023-04-22 07:00:00","co2_corrected":469.0,"temp":13.5905098333,"Sensor ID":"Bs82202","Node ID":274,"Location":"Alpert Medical School","Latitude":41.81898,"Longitude":-71.40826,"Installation Date":"7\/28\/2022"},{"datetime":"2023-04-22 06:00:00","co2_corrected":469.0,"temp":13.22958,"Sensor ID":"Bs82202","Node ID":274,"Location":"Alpert Medical School","Latitude":41.81898,"Longitude":-71.40826,"Installation Date":"7\/28\/2022"},{"datetime":"2023-04-22 05:00:00","co2_corrected":469.0,"temp":13.0842241667,"Sensor ID":"Bs82202","Node ID":274,"Location":"Alpert Medical School","Latitude":41.81898,"Longitude":-71.40826,"Installation Date":"7\/28\/2022"},{"datetime":"2023-04-22 04:00:00","co2_corrected":466.0,"temp":13.0586508333,"Sensor ID":"Bs82202","Node ID":274,"Location":"Alpert Medical School","Latitude":41.81898,"Longitude":-71.40826,"Installation Date":"7\/28\/2022"},{"datetime":"2023-04-22 10:00:00","co2_corrected":457.0,"temp":15.2067371667,"Sensor ID":"Bs172202","Node ID":266,"Location":"Blackstone Residence","Latitude":41.83551,"Longitude":-71.38335,"Installation Date":"3\/6\/2023"},{"datetime":"2023-04-22 09:00:00","co2_corrected":461.0,"temp":14.0710063333,"Sensor ID":"Bs172202","Node ID":266,"Location":"Blackstone Residence","Latitude":41.83551,"Longitude":-71.38335,"Installation Date":"3\/6\/2023"},{"datetime":"2023-04-22 08:00:00","co2_corrected":462.0,"temp":12.8899255,"Sensor ID":"Bs172202","Node ID":266,"Location":"Blackstone Residence","Latitude":41.83551,"Longitude":-71.38335,"Installation Date":"3\/6\/2023"},{"datetime":"2023-04-22 07:00:00","co2_corrected":463.0,"temp":12.0081795,"Sensor ID":"Bs172202","Node ID":266,"Location":"Blackstone Residence","Latitude":41.83551,"Longitude":-71.38335,"Installation Date":"3\/6\/2023"},{"datetime":"2023-04-22 06:00:00","co2_corrected":463.0,"temp":11.7302581667,"Sensor ID":"Bs172202","Node ID":266,"Location":"Blackstone Residence","Latitude":41.83551,"Longitude":-71.38335,"Installation Date":"3\/6\/2023"},{"datetime":"2023-04-22 05:00:00","co2_corrected":464.0,"temp":11.5648743333,"Sensor ID":"Bs172202","Node ID":266,"Location":"Blackstone Residence","Latitude":41.83551,"Longitude":-71.38335,"Installation Date":"3\/6\/2023"},{"datetime":"2023-04-22 04:00:00","co2_corrected":462.0,"temp":11.6507146667,"Sensor ID":"Bs172202","Node ID":266,"Location":"Blackstone Residence","Latitude":41.83551,"Longitude":-71.38335,"Installation Date":"3\/6\/2023"},{"datetime":"2023-04-22 10:00:00","co2_corrected":452.0,"temp":18.3256711667,"Sensor ID":"Bs232202","Node ID":265,"Location":"Rhode Island College","Latitude":41.84212,"Longitude":-71.46526,"Installation Date":"3\/16\/2023"},{"datetime":"2023-04-22 09:00:00","co2_corrected":457.0,"temp":16.1103845,"Sensor ID":"Bs232202","Node ID":265,"Location":"Rhode Island College","Latitude":41.84212,"Longitude":-71.46526,"Installation Date":"3\/16\/2023"},{"datetime":"2023-04-22 08:00:00","co2_corrected":458.0,"temp":14.5841691667,"Sensor ID":"Bs232202","Node ID":265,"Location":"Rhode Island College","Latitude":41.84212,"Longitude":-71.46526,"Installation Date":"3\/16\/2023"},{"datetime":"2023-04-22 07:00:00","co2_corrected":459.0,"temp":13.3452736667,"Sensor ID":"Bs232202","Node ID":265,"Location":"Rhode Island College","Latitude":41.84212,"Longitude":-71.46526,"Installation Date":"3\/16\/2023"},{"datetime":"2023-04-22 06:00:00","co2_corrected":456.0,"temp":12.7320106667,"Sensor ID":"Bs232202","Node ID":265,"Location":"Rhode Island College","Latitude":41.84212,"Longitude":-71.46526,"Installation Date":"3\/16\/2023"},{"datetime":"2023-04-22 05:00:00","co2_corrected":453.0,"temp":12.6552828333,"Sensor ID":"Bs232202","Node ID":265,"Location":"Rhode Island College","Latitude":41.84212,"Longitude":-71.46526,"Installation Date":"3\/16\/2023"},{"datetime":"2023-04-22 04:00:00","co2_corrected":451.0,"temp":12.7506143333,"Sensor ID":"Bs232202","Node ID":265,"Location":"Rhode Island College","Latitude":41.84212,"Longitude":-71.46526,"Installation Date":"3\/16\/2023"},{"datetime":"2023-04-22 10:00:00","co2_corrected":438.0,"temp":18.354524,"Sensor ID":"Bs12202","Node ID":250,"Location":"Myron J. Francis Elementary","Latitude":41.84094,"Longitude":-71.36093,"Installation Date":"7\/11\/2022"},{"datetime":"2023-04-22 09:00:00","co2_corrected":441.0,"temp":16.2404743333,"Sensor ID":"Bs12202","Node ID":250,"Location":"Myron J. Francis Elementary","Latitude":41.84094,"Longitude":-71.36093,"Installation Date":"7\/11\/2022"},{"datetime":"2023-04-22 08:00:00","co2_corrected":445.0,"temp":14.5540563333,"Sensor ID":"Bs12202","Node ID":250,"Location":"Myron J. Francis Elementary","Latitude":41.84094,"Longitude":-71.36093,"Installation Date":"7\/11\/2022"},{"datetime":"2023-04-22 07:00:00","co2_corrected":447.0,"temp":13.5806986667,"Sensor ID":"Bs12202","Node ID":250,"Location":"Myron J. Francis Elementary","Latitude":41.84094,"Longitude":-71.36093,"Installation Date":"7\/11\/2022"},{"datetime":"2023-04-22 06:00:00","co2_corrected":447.0,"temp":13.2148578333,"Sensor ID":"Bs12202","Node ID":250,"Location":"Myron J. Francis Elementary","Latitude":41.84094,"Longitude":-71.36093,"Installation Date":"7\/11\/2022"},{"datetime":"2023-04-22 05:00:00","co2_corrected":447.0,"temp":13.058275,"Sensor ID":"Bs12202","Node ID":250,"Location":"Myron J. Francis Elementary","Latitude":41.84094,"Longitude":-71.36093,"Installation Date":"7\/11\/2022"},{"datetime":"2023-04-22 04:00:00","co2_corrected":446.0,"temp":13.1737488333,"Sensor ID":"Bs12202","Node ID":250,"Location":"Myron J. Francis Elementary","Latitude":41.84094,"Longitude":-71.36093,"Installation Date":"7\/11\/2022"},{"datetime":"2023-04-22 10:00:00","co2_corrected":454.0,"temp":17.6365785,"Sensor ID":"Bs152202","Node ID":262,"Location":"Main Street Martial Arts","Latitude":41.85521,"Longitude":-71.40042,"Installation Date":"11\/11\/2022"},{"datetime":"2023-04-22 09:00:00","co2_corrected":459.0,"temp":16.0881381667,"Sensor ID":"Bs152202","Node ID":262,"Location":"Main Street Martial Arts","Latitude":41.85521,"Longitude":-71.40042,"Installation Date":"11\/11\/2022"},{"datetime":"2023-04-22 08:00:00","co2_corrected":457.0,"temp":14.5946295,"Sensor ID":"Bs152202","Node ID":262,"Location":"Main Street Martial Arts","Latitude":41.85521,"Longitude":-71.40042,"Installation Date":"11\/11\/2022"},{"datetime":"2023-04-22 07:00:00","co2_corrected":455.0,"temp":13.4781955,"Sensor ID":"Bs152202","Node ID":262,"Location":"Main Street Martial Arts","Latitude":41.85521,"Longitude":-71.40042,"Installation Date":"11\/11\/2022"},{"datetime":"2023-04-22 06:00:00","co2_corrected":455.0,"temp":13.0408796667,"Sensor ID":"Bs152202","Node ID":262,"Location":"Main Street Martial Arts","Latitude":41.85521,"Longitude":-71.40042,"Installation Date":"11\/11\/2022"},{"datetime":"2023-04-22 05:00:00","co2_corrected":454.0,"temp":12.85203,"Sensor ID":"Bs152202","Node ID":262,"Location":"Main Street Martial Arts","Latitude":41.85521,"Longitude":-71.40042,"Installation Date":"11\/11\/2022"},{"datetime":"2023-04-22 04:00:00","co2_corrected":454.0,"temp":12.9403166667,"Sensor ID":"Bs152202","Node ID":262,"Location":"Main Street Martial Arts","Latitude":41.85521,"Longitude":-71.40042,"Installation Date":"11\/11\/2022"},{"datetime":"2023-04-22 10:00:00","co2_corrected":455.0,"temp":16.7453041667,"Sensor ID":"Bs102202","Node ID":251,"Location":"Zuccolo Recreation Center","Latitude":41.82287,"Longitude":-71.43067,"Installation Date":"10\/4\/2022"},{"datetime":"2023-04-22 09:00:00","co2_corrected":458.0,"temp":15.031008,"Sensor ID":"Bs102202","Node ID":251,"Location":"Zuccolo Recreation Center","Latitude":41.82287,"Longitude":-71.43067,"Installation Date":"10\/4\/2022"},{"datetime":"2023-04-22 08:00:00","co2_corrected":459.0,"temp":13.6516158333,"Sensor ID":"Bs102202","Node ID":251,"Location":"Zuccolo Recreation Center","Latitude":41.82287,"Longitude":-71.43067,"Installation Date":"10\/4\/2022"},{"datetime":"2023-04-22 07:00:00","co2_corrected":459.0,"temp":12.8681693333,"Sensor ID":"Bs102202","Node ID":251,"Location":"Zuccolo Recreation Center","Latitude":41.82287,"Longitude":-71.43067,"Installation Date":"10\/4\/2022"},{"datetime":"2023-04-22 06:00:00","co2_corrected":458.0,"temp":12.525232,"Sensor ID":"Bs102202","Node ID":251,"Location":"Zuccolo Recreation Center","Latitude":41.82287,"Longitude":-71.43067,"Installation Date":"10\/4\/2022"},{"datetime":"2023-04-22 05:00:00","co2_corrected":459.0,"temp":12.6028593333,"Sensor ID":"Bs102202","Node ID":251,"Location":"Zuccolo Recreation Center","Latitude":41.82287,"Longitude":-71.43067,"Installation Date":"10\/4\/2022"},{"datetime":"2023-04-22 04:00:00","co2_corrected":458.0,"temp":12.7585366667,"Sensor ID":"Bs102202","Node ID":251,"Location":"Zuccolo Recreation Center","Latitude":41.82287,"Longitude":-71.43067,"Installation Date":"10\/4\/2022"},{"datetime":"2023-04-22 10:00:00","co2_corrected":455.0,"temp":16.8346755,"Sensor ID":"Bs42202","Node ID":261,"Location":"Anthony Carnevale Elementary","Latitude":41.81678,"Longitude":-71.46458,"Installation Date":"12\/6\/2022"},{"datetime":"2023-04-22 09:00:00","co2_corrected":458.0,"temp":15.2525591667,"Sensor ID":"Bs42202","Node ID":261,"Location":"Anthony Carnevale Elementary","Latitude":41.81678,"Longitude":-71.46458,"Installation Date":"12\/6\/2022"},{"datetime":"2023-04-22 08:00:00","co2_corrected":460.0,"temp":14.2032193333,"Sensor ID":"Bs42202","Node ID":261,"Location":"Anthony Carnevale Elementary","Latitude":41.81678,"Longitude":-71.46458,"Installation Date":"12\/6\/2022"},{"datetime":"2023-04-22 07:00:00","co2_corrected":460.0,"temp":13.1539568333,"Sensor ID":"Bs42202","Node ID":261,"Location":"Anthony Carnevale Elementary","Latitude":41.81678,"Longitude":-71.46458,"Installation Date":"12\/6\/2022"},{"datetime":"2023-04-22 06:00:00","co2_corrected":459.0,"temp":12.722725,"Sensor ID":"Bs42202","Node ID":261,"Location":"Anthony Carnevale Elementary","Latitude":41.81678,"Longitude":-71.46458,"Installation Date":"12\/6\/2022"},{"datetime":"2023-04-22 05:00:00","co2_corrected":460.0,"temp":12.8175445,"Sensor ID":"Bs42202","Node ID":261,"Location":"Anthony Carnevale Elementary","Latitude":41.81678,"Longitude":-71.46458,"Installation Date":"12\/6\/2022"},{"datetime":"2023-04-22 04:00:00","co2_corrected":460.0,"temp":12.8685881667,"Sensor ID":"Bs42202","Node ID":261,"Location":"Anthony Carnevale Elementary","Latitude":41.81678,"Longitude":-71.46458,"Installation Date":"12\/6\/2022"},{"datetime":"2023-04-22 09:00:00","co2_corrected":456.0,"temp":13.943322,"Sensor ID":"Bs242202","Node ID":268,"Location":"Providence College","Latitude":41.84272,"Longitude":-71.43888,"Installation Date":"3\/16\/2023"},{"datetime":"2023-04-22 08:00:00","co2_corrected":459.0,"temp":12.5022958333,"Sensor ID":"Bs242202","Node ID":268,"Location":"Providence College","Latitude":41.84272,"Longitude":-71.43888,"Installation Date":"3\/16\/2023"},{"datetime":"2023-04-22 07:00:00","co2_corrected":460.0,"temp":11.644387,"Sensor ID":"Bs242202","Node ID":268,"Location":"Providence College","Latitude":41.84272,"Longitude":-71.43888,"Installation Date":"3\/16\/2023"},{"datetime":"2023-04-22 06:00:00","co2_corrected":459.0,"temp":11.2235011667,"Sensor ID":"Bs242202","Node ID":268,"Location":"Providence College","Latitude":41.84272,"Longitude":-71.43888,"Installation Date":"3\/16\/2023"},{"datetime":"2023-04-22 05:00:00","co2_corrected":460.0,"temp":11.2459178333,"Sensor ID":"Bs242202","Node ID":268,"Location":"Providence College","Latitude":41.84272,"Longitude":-71.43888,"Installation Date":"3\/16\/2023"},{"datetime":"2023-04-22 04:00:00","co2_corrected":459.0,"temp":11.3858051667,"Sensor ID":"Bs242202","Node ID":268,"Location":"Providence College","Latitude":41.84272,"Longitude":-71.43888,"Installation Date":"3\/16\/2023"},{"datetime":"2023-04-22 08:00:00","co2_corrected":477.0,"temp":12.9354013333,"Sensor ID":"Bs112202","Node ID":252,"Location":"West End Community Center","Latitude":41.80439,"Longitude":-71.42825,"Installation Date":"9\/2\/2022"},{"datetime":"2023-04-22 07:00:00","co2_corrected":475.0,"temp":11.6584138333,"Sensor ID":"Bs112202","Node ID":252,"Location":"West End Community Center","Latitude":41.80439,"Longitude":-71.42825,"Installation Date":"9\/2\/2022"},{"datetime":"2023-04-22 06:00:00","co2_corrected":475.0,"temp":11.1942755,"Sensor ID":"Bs112202","Node ID":252,"Location":"West End Community Center","Latitude":41.80439,"Longitude":-71.42825,"Installation Date":"9\/2\/2022"},{"datetime":"2023-04-22 05:00:00","co2_corrected":474.0,"temp":11.1450751667,"Sensor ID":"Bs112202","Node ID":252,"Location":"West End Community Center","Latitude":41.80439,"Longitude":-71.42825,"Installation Date":"9\/2\/2022"},{"datetime":"2023-04-22 04:00:00","co2_corrected":474.0,"temp":11.1174125,"Sensor ID":"Bs112202","Node ID":252,"Location":"West End Community Center","Latitude":41.80439,"Longitude":-71.42825,"Installation Date":"9\/2\/2022"},{"datetime":-1,"co2_corrected":-1.0,"temp":-1.0,"Sensor ID":"Bs32202","Node ID":258,"Location":"Reservoir Ave Elementary","Latitude":41.79157,"Longitude":-71.42788,"Installation Date":"11\/17\/2022"},{"datetime":-1,"co2_corrected":-1.0,"temp":-1.0,"Sensor ID":"Bs52202","Node ID":264,"Location":"E-Cubed Academy Senior High","Latitude":41.85417,"Longitude":-71.43444,"Installation Date":"11\/17\/2022"},{"datetime":-1,"co2_corrected":-1.0,"temp":-1.0,"Sensor ID":"Bs62202","Node ID":267,"Location":"Rochambeau Library","Latitude":41.84621,"Longitude":-71.39663,"Installation Date":"8\/25\/2022"},{"datetime":-1,"co2_corrected":-1.0,"temp":-1.0,"Sensor ID":"Bs122202","Node ID":255,"Location":"United Way","Latitude":41.81803,"Longitude":-71.44121,"Installation Date":"11\/19\/2022"},{"datetime":-1,"co2_corrected":-1.0,"temp":-1.0,"Sensor ID":"Bs132202","Node ID":257,"Location":"Providence Housing Authority  ","Latitude":41.81714,"Longitude":-71.45533,"Installation Date":"8\/9\/2022"},{"datetime":-1,"co2_corrected":-1.0,"temp":-1.0,"Sensor ID":"Bs142202","Node ID":259,"Location":"CCRI - Liston Campus","Latitude":41.80745,"Longitude":-71.41341,"Installation Date":"10\/27\/2022"},{"datetime":-1,"co2_corrected":-1.0,"temp":-1.0,"Sensor ID":"Bs162202","Node ID":263,"Location":"South Providence Library","Latitude":41.80205,"Longitude":-71.41378,"Installation Date":"8\/25\/2022"},{"datetime":-1,"co2_corrected":-1.0,"temp":-1.0,"Sensor ID":"Bs192202","Node ID":272,"Location":"Rock Spot","Latitude":41.81509,"Longitude":-71.42216,"Installation Date":"12\/15\/2022"}]