[{"datetime":"2023-03-04 17:00:00","co2_corrected":466.0,"temp":7.0289358333,"Sensor ID":"Bs102202","Node ID":251,"Location":"Zuccolo Recreation Center","Latitude":41.82287,"Longitude":-71.43067},{"datetime":"2023-03-04 16:00:00","co2_corrected":464.0,"temp":7.2739181667,"Sensor ID":"Bs102202","Node ID":251,"Location":"Zuccolo Recreation Center","Latitude":41.82287,"Longitude":-71.43067},{"datetime":"2023-03-04 15:00:00","co2_corrected":464.0,"temp":6.7594594915,"Sensor ID":"Bs102202","Node ID":251,"Location":"Zuccolo Recreation Center","Latitude":41.82287,"Longitude":-71.43067},{"datetime":"2023-03-04 14:00:00","co2_corrected":466.0,"temp":6.3275481034,"Sensor ID":"Bs102202","Node ID":251,"Location":"Zuccolo Recreation Center","Latitude":41.82287,"Longitude":-71.43067},{"datetime":"2023-03-04 13:00:00","co2_corrected":465.0,"temp":5.1993437931,"Sensor ID":"Bs102202","Node ID":251,"Location":"Zuccolo Recreation Center","Latitude":41.82287,"Longitude":-71.43067},{"datetime":"2023-03-04 12:00:00","co2_corrected":465.0,"temp":4.898375,"Sensor ID":"Bs102202","Node ID":251,"Location":"Zuccolo Recreation Center","Latitude":41.82287,"Longitude":-71.43067},{"datetime":"2023-03-04 11:00:00","co2_corrected":466.0,"temp":5.1155250877,"Sensor ID":"Bs102202","Node ID":251,"Location":"Zuccolo Recreation Center","Latitude":41.82287,"Longitude":-71.43067},{"datetime":"2023-03-04 10:00:00","co2_corrected":464.0,"temp":4.6375521667,"Sensor ID":"Bs102202","Node ID":251,"Location":"Zuccolo Recreation Center","Latitude":41.82287,"Longitude":-71.43067},{"datetime":"2023-03-04 09:00:00","co2_corrected":464.0,"temp":3.929797,"Sensor ID":"Bs102202","Node ID":251,"Location":"Zuccolo Recreation Center","Latitude":41.82287,"Longitude":-71.43067},{"datetime":"2023-03-04 08:00:00","co2_corrected":463.0,"temp":3.5310396667,"Sensor ID":"Bs102202","Node ID":251,"Location":"Zuccolo Recreation Center","Latitude":41.82287,"Longitude":-71.43067},{"datetime":"2023-03-04 07:00:00","co2_corrected":466.0,"temp":3.801233,"Sensor ID":"Bs102202","Node ID":251,"Location":"Zuccolo Recreation Center","Latitude":41.82287,"Longitude":-71.43067},{"datetime":"2023-03-04 06:00:00","co2_corrected":466.0,"temp":3.596125,"Sensor ID":"Bs102202","Node ID":251,"Location":"Zuccolo Recreation Center","Latitude":41.82287,"Longitude":-71.43067},{"datetime":"2023-03-04 05:00:00","co2_corrected":464.0,"temp":3.1177746667,"Sensor ID":"Bs102202","Node ID":251,"Location":"Zuccolo Recreation Center","Latitude":41.82287,"Longitude":-71.43067},{"datetime":"2023-03-04 17:00:00","co2_corrected":472.0,"temp":6.4352966667,"Sensor ID":"Bs32202","Node ID":258,"Location":"Reservoir Ave Elementary","Latitude":41.79157,"Longitude":-71.42788},{"datetime":"2023-03-04 16:00:00","co2_corrected":471.0,"temp":7.2749236667,"Sensor ID":"Bs32202","Node ID":258,"Location":"Reservoir Ave Elementary","Latitude":41.79157,"Longitude":-71.42788},{"datetime":"2023-03-04 15:00:00","co2_corrected":472.0,"temp":6.944413,"Sensor ID":"Bs32202","Node ID":258,"Location":"Reservoir Ave Elementary","Latitude":41.79157,"Longitude":-71.42788},{"datetime":"2023-03-04 14:00:00","co2_corrected":474.0,"temp":6.2590513333,"Sensor ID":"Bs32202","Node ID":258,"Location":"Reservoir Ave Elementary","Latitude":41.79157,"Longitude":-71.42788},{"datetime":"2023-03-04 13:00:00","co2_corrected":472.0,"temp":4.9718066102,"Sensor ID":"Bs32202","Node ID":258,"Location":"Reservoir Ave Elementary","Latitude":41.79157,"Longitude":-71.42788},{"datetime":"2023-03-04 12:00:00","co2_corrected":472.0,"temp":4.6246525,"Sensor ID":"Bs32202","Node ID":258,"Location":"Reservoir Ave Elementary","Latitude":41.79157,"Longitude":-71.42788},{"datetime":"2023-03-04 11:00:00","co2_corrected":473.0,"temp":4.6204585,"Sensor ID":"Bs32202","Node ID":258,"Location":"Reservoir Ave Elementary","Latitude":41.79157,"Longitude":-71.42788},{"datetime":"2023-03-04 10:00:00","co2_corrected":469.0,"temp":3.9647835,"Sensor ID":"Bs32202","Node ID":258,"Location":"Reservoir Ave Elementary","Latitude":41.79157,"Longitude":-71.42788},{"datetime":"2023-03-04 09:00:00","co2_corrected":467.0,"temp":3.2329421667,"Sensor ID":"Bs32202","Node ID":258,"Location":"Reservoir Ave Elementary","Latitude":41.79157,"Longitude":-71.42788},{"datetime":"2023-03-04 08:00:00","co2_corrected":468.0,"temp":2.8778226667,"Sensor ID":"Bs32202","Node ID":258,"Location":"Reservoir Ave Elementary","Latitude":41.79157,"Longitude":-71.42788},{"datetime":"2023-03-04 07:00:00","co2_corrected":469.0,"temp":3.0826626667,"Sensor ID":"Bs32202","Node ID":258,"Location":"Reservoir Ave Elementary","Latitude":41.79157,"Longitude":-71.42788},{"datetime":"2023-03-04 06:00:00","co2_corrected":472.0,"temp":2.809804,"Sensor ID":"Bs32202","Node ID":258,"Location":"Reservoir Ave Elementary","Latitude":41.79157,"Longitude":-71.42788},{"datetime":"2023-03-04 05:00:00","co2_corrected":467.0,"temp":2.308546,"Sensor ID":"Bs32202","Node ID":258,"Location":"Reservoir Ave Elementary","Latitude":41.79157,"Longitude":-71.42788},{"datetime":"2023-03-04 17:00:00","co2_corrected":463.0,"temp":7.6776613333,"Sensor ID":"Bs82202","Node ID":274,"Location":"Alpert Medical School","Latitude":41.81898,"Longitude":-71.40826},{"datetime":"2023-03-04 16:00:00","co2_corrected":462.0,"temp":8.3769038333,"Sensor ID":"Bs82202","Node ID":274,"Location":"Alpert Medical School","Latitude":41.81898,"Longitude":-71.40826},{"datetime":"2023-03-04 15:00:00","co2_corrected":462.0,"temp":7.8701958333,"Sensor ID":"Bs82202","Node ID":274,"Location":"Alpert Medical School","Latitude":41.81898,"Longitude":-71.40826},{"datetime":"2023-03-04 14:00:00","co2_corrected":464.0,"temp":7.2850208333,"Sensor ID":"Bs82202","Node ID":274,"Location":"Alpert Medical School","Latitude":41.81898,"Longitude":-71.40826},{"datetime":"2023-03-04 13:00:00","co2_corrected":464.0,"temp":6.2821364407,"Sensor ID":"Bs82202","Node ID":274,"Location":"Alpert Medical School","Latitude":41.81898,"Longitude":-71.40826},{"datetime":"2023-03-04 12:00:00","co2_corrected":464.0,"temp":6.1338465,"Sensor ID":"Bs82202","Node ID":274,"Location":"Alpert Medical School","Latitude":41.81898,"Longitude":-71.40826},{"datetime":"2023-03-04 11:00:00","co2_corrected":463.0,"temp":6.3267141667,"Sensor ID":"Bs82202","Node ID":274,"Location":"Alpert Medical School","Latitude":41.81898,"Longitude":-71.40826},{"datetime":"2023-03-04 10:00:00","co2_corrected":460.0,"temp":5.700427,"Sensor ID":"Bs82202","Node ID":274,"Location":"Alpert Medical School","Latitude":41.81898,"Longitude":-71.40826},{"datetime":"2023-03-04 09:00:00","co2_corrected":461.0,"temp":4.916068,"Sensor ID":"Bs82202","Node ID":274,"Location":"Alpert Medical School","Latitude":41.81898,"Longitude":-71.40826},{"datetime":"2023-03-04 08:00:00","co2_corrected":462.0,"temp":4.4673493333,"Sensor ID":"Bs82202","Node ID":274,"Location":"Alpert Medical School","Latitude":41.81898,"Longitude":-71.40826},{"datetime":"2023-03-04 07:00:00","co2_corrected":460.0,"temp":4.6989278333,"Sensor ID":"Bs82202","Node ID":274,"Location":"Alpert Medical School","Latitude":41.81898,"Longitude":-71.40826},{"datetime":"2023-03-04 06:00:00","co2_corrected":465.0,"temp":4.4792101667,"Sensor ID":"Bs82202","Node ID":274,"Location":"Alpert Medical School","Latitude":41.81898,"Longitude":-71.40826},{"datetime":"2023-03-04 05:00:00","co2_corrected":464.0,"temp":4.029651,"Sensor ID":"Bs82202","Node ID":274,"Location":"Alpert Medical School","Latitude":41.81898,"Longitude":-71.40826},{"datetime":"2023-03-04 17:00:00","co2_corrected":454.0,"temp":7.791653,"Sensor ID":"Bs22202","Node ID":254,"Location":"Silver Lake Residence","Latitude":41.81052,"Longitude":-71.44752},{"datetime":"2023-03-04 16:00:00","co2_corrected":453.0,"temp":7.9259815,"Sensor ID":"Bs22202","Node ID":254,"Location":"Silver Lake Residence","Latitude":41.81052,"Longitude":-71.44752},{"datetime":"2023-03-04 15:00:00","co2_corrected":452.0,"temp":7.9717061667,"Sensor ID":"Bs22202","Node ID":254,"Location":"Silver Lake Residence","Latitude":41.81052,"Longitude":-71.44752},{"datetime":"2023-03-04 14:00:00","co2_corrected":453.0,"temp":7.3183006667,"Sensor ID":"Bs22202","Node ID":254,"Location":"Silver Lake Residence","Latitude":41.81052,"Longitude":-71.44752},{"datetime":"2023-03-04 13:00:00","co2_corrected":452.0,"temp":6.1970591525,"Sensor ID":"Bs22202","Node ID":254,"Location":"Silver Lake Residence","Latitude":41.81052,"Longitude":-71.44752},{"datetime":"2023-03-04 12:00:00","co2_corrected":453.0,"temp":6.1010923333,"Sensor ID":"Bs22202","Node ID":254,"Location":"Silver Lake Residence","Latitude":41.81052,"Longitude":-71.44752},{"datetime":"2023-03-04 11:00:00","co2_corrected":454.0,"temp":6.4128388333,"Sensor ID":"Bs22202","Node ID":254,"Location":"Silver Lake Residence","Latitude":41.81052,"Longitude":-71.44752},{"datetime":"2023-03-04 10:00:00","co2_corrected":453.0,"temp":6.0257801667,"Sensor ID":"Bs22202","Node ID":254,"Location":"Silver Lake Residence","Latitude":41.81052,"Longitude":-71.44752},{"datetime":"2023-03-04 09:00:00","co2_corrected":452.0,"temp":5.3209098333,"Sensor ID":"Bs22202","Node ID":254,"Location":"Silver Lake Residence","Latitude":41.81052,"Longitude":-71.44752},{"datetime":"2023-03-04 08:00:00","co2_corrected":454.0,"temp":4.9379576667,"Sensor ID":"Bs22202","Node ID":254,"Location":"Silver Lake Residence","Latitude":41.81052,"Longitude":-71.44752},{"datetime":"2023-03-04 07:00:00","co2_corrected":454.0,"temp":5.0992816667,"Sensor ID":"Bs22202","Node ID":254,"Location":"Silver Lake Residence","Latitude":41.81052,"Longitude":-71.44752},{"datetime":"2023-03-04 06:00:00","co2_corrected":453.0,"temp":4.7596576667,"Sensor ID":"Bs22202","Node ID":254,"Location":"Silver Lake Residence","Latitude":41.81052,"Longitude":-71.44752},{"datetime":"2023-03-04 05:00:00","co2_corrected":452.0,"temp":4.3314015,"Sensor ID":"Bs22202","Node ID":254,"Location":"Silver Lake Residence","Latitude":41.81052,"Longitude":-71.44752},{"datetime":"2023-03-04 17:00:00","co2_corrected":456.0,"temp":8.8313761667,"Sensor ID":"Bs92202","Node ID":276,"Location":"Department of Public Works","Latitude":41.7952,"Longitude":-71.39784},{"datetime":"2023-03-04 16:00:00","co2_corrected":455.0,"temp":9.3075781667,"Sensor ID":"Bs92202","Node ID":276,"Location":"Department of Public Works","Latitude":41.7952,"Longitude":-71.39784},{"datetime":"2023-03-04 15:00:00","co2_corrected":455.0,"temp":8.8960316949,"Sensor ID":"Bs92202","Node ID":276,"Location":"Department of Public Works","Latitude":41.7952,"Longitude":-71.39784},{"datetime":"2023-03-04 14:00:00","co2_corrected":458.0,"temp":8.3418511667,"Sensor ID":"Bs92202","Node ID":276,"Location":"Department of Public Works","Latitude":41.7952,"Longitude":-71.39784},{"datetime":"2023-03-04 13:00:00","co2_corrected":457.0,"temp":7.7514152542,"Sensor ID":"Bs92202","Node ID":276,"Location":"Department of Public Works","Latitude":41.7952,"Longitude":-71.39784},{"datetime":"2023-03-04 12:00:00","co2_corrected":458.0,"temp":7.7621195,"Sensor ID":"Bs92202","Node ID":276,"Location":"Department of Public Works","Latitude":41.7952,"Longitude":-71.39784},{"datetime":"2023-03-04 11:00:00","co2_corrected":456.0,"temp":7.9742765,"Sensor ID":"Bs92202","Node ID":276,"Location":"Department of Public Works","Latitude":41.7952,"Longitude":-71.39784},{"datetime":"2023-03-04 10:00:00","co2_corrected":454.0,"temp":7.5598758333,"Sensor ID":"Bs92202","Node ID":276,"Location":"Department of Public Works","Latitude":41.7952,"Longitude":-71.39784},{"datetime":"2023-03-04 09:00:00","co2_corrected":455.0,"temp":6.8607325,"Sensor ID":"Bs92202","Node ID":276,"Location":"Department of Public Works","Latitude":41.7952,"Longitude":-71.39784},{"datetime":"2023-03-04 08:00:00","co2_corrected":456.0,"temp":6.5556736667,"Sensor ID":"Bs92202","Node ID":276,"Location":"Department of Public Works","Latitude":41.7952,"Longitude":-71.39784},{"datetime":"2023-03-04 07:00:00","co2_corrected":458.0,"temp":6.823118,"Sensor ID":"Bs92202","Node ID":276,"Location":"Department of Public Works","Latitude":41.7952,"Longitude":-71.39784},{"datetime":"2023-03-04 06:00:00","co2_corrected":459.0,"temp":6.6117895,"Sensor ID":"Bs92202","Node ID":276,"Location":"Department of Public Works","Latitude":41.7952,"Longitude":-71.39784},{"datetime":"2023-03-04 05:00:00","co2_corrected":458.0,"temp":6.1064941667,"Sensor ID":"Bs92202","Node ID":276,"Location":"Department of Public Works","Latitude":41.7952,"Longitude":-71.39784},{"datetime":"2023-03-04 16:00:00","co2_corrected":462.0,"temp":7.7600905,"Sensor ID":"Bs72202","Node ID":270,"Location":"Smith Hill Library","Latitude":41.83549,"Longitude":-71.42217},{"datetime":"2023-03-04 15:00:00","co2_corrected":463.0,"temp":7.435512,"Sensor ID":"Bs72202","Node ID":270,"Location":"Smith Hill Library","Latitude":41.83549,"Longitude":-71.42217},{"datetime":"2023-03-04 14:00:00","co2_corrected":464.0,"temp":7.2854661667,"Sensor ID":"Bs72202","Node ID":270,"Location":"Smith Hill Library","Latitude":41.83549,"Longitude":-71.42217},{"datetime":"2023-03-04 13:00:00","co2_corrected":463.0,"temp":5.9394513559,"Sensor ID":"Bs72202","Node ID":270,"Location":"Smith Hill Library","Latitude":41.83549,"Longitude":-71.42217},{"datetime":"2023-03-04 12:00:00","co2_corrected":463.0,"temp":5.6538316667,"Sensor ID":"Bs72202","Node ID":270,"Location":"Smith Hill Library","Latitude":41.83549,"Longitude":-71.42217},{"datetime":"2023-03-04 11:00:00","co2_corrected":464.0,"temp":5.9703556667,"Sensor ID":"Bs72202","Node ID":270,"Location":"Smith Hill Library","Latitude":41.83549,"Longitude":-71.42217},{"datetime":"2023-03-04 10:00:00","co2_corrected":461.0,"temp":5.4952353333,"Sensor ID":"Bs72202","Node ID":270,"Location":"Smith Hill Library","Latitude":41.83549,"Longitude":-71.42217},{"datetime":"2023-03-04 09:00:00","co2_corrected":461.0,"temp":4.7867943333,"Sensor ID":"Bs72202","Node ID":270,"Location":"Smith Hill Library","Latitude":41.83549,"Longitude":-71.42217},{"datetime":"2023-03-04 08:00:00","co2_corrected":461.0,"temp":4.2183045,"Sensor ID":"Bs72202","Node ID":270,"Location":"Smith Hill Library","Latitude":41.83549,"Longitude":-71.42217},{"datetime":"2023-03-04 07:00:00","co2_corrected":462.0,"temp":4.5232935,"Sensor ID":"Bs72202","Node ID":270,"Location":"Smith Hill Library","Latitude":41.83549,"Longitude":-71.42217},{"datetime":"2023-03-04 06:00:00","co2_corrected":462.0,"temp":4.3452588333,"Sensor ID":"Bs72202","Node ID":270,"Location":"Smith Hill Library","Latitude":41.83549,"Longitude":-71.42217},{"datetime":"2023-03-04 05:00:00","co2_corrected":461.0,"temp":3.8418788333,"Sensor ID":"Bs72202","Node ID":270,"Location":"Smith Hill Library","Latitude":41.83549,"Longitude":-71.42217},{"datetime":"2023-03-04 16:00:00","co2_corrected":452.0,"temp":6.4513961667,"Sensor ID":"Bs52202","Node ID":264,"Location":"E-Cubed Academy Senior High","Latitude":41.85417,"Longitude":-71.43444},{"datetime":"2023-03-04 15:00:00","co2_corrected":452.0,"temp":5.8545815,"Sensor ID":"Bs52202","Node ID":264,"Location":"E-Cubed Academy Senior High","Latitude":41.85417,"Longitude":-71.43444},{"datetime":"2023-03-04 14:00:00","co2_corrected":453.0,"temp":5.9777555932,"Sensor ID":"Bs52202","Node ID":264,"Location":"E-Cubed Academy Senior High","Latitude":41.85417,"Longitude":-71.43444},{"datetime":"2023-03-04 13:00:00","co2_corrected":452.0,"temp":4.6398193103,"Sensor ID":"Bs52202","Node ID":264,"Location":"E-Cubed Academy Senior High","Latitude":41.85417,"Longitude":-71.43444},{"datetime":"2023-03-04 12:00:00","co2_corrected":451.0,"temp":4.1761711864,"Sensor ID":"Bs52202","Node ID":264,"Location":"E-Cubed Academy Senior High","Latitude":41.85417,"Longitude":-71.43444},{"datetime":"2023-03-04 11:00:00","co2_corrected":452.0,"temp":4.597875,"Sensor ID":"Bs52202","Node ID":264,"Location":"E-Cubed Academy Senior High","Latitude":41.85417,"Longitude":-71.43444},{"datetime":"2023-03-04 10:00:00","co2_corrected":455.0,"temp":4.1591308333,"Sensor ID":"Bs52202","Node ID":264,"Location":"E-Cubed Academy Senior High","Latitude":41.85417,"Longitude":-71.43444},{"datetime":"2023-03-04 09:00:00","co2_corrected":457.0,"temp":3.3373318333,"Sensor ID":"Bs52202","Node ID":264,"Location":"E-Cubed Academy Senior High","Latitude":41.85417,"Longitude":-71.43444},{"datetime":"2023-03-04 08:00:00","co2_corrected":457.0,"temp":2.6623906667,"Sensor ID":"Bs52202","Node ID":264,"Location":"E-Cubed Academy Senior High","Latitude":41.85417,"Longitude":-71.43444},{"datetime":"2023-03-04 07:00:00","co2_corrected":458.0,"temp":2.9510091667,"Sensor ID":"Bs52202","Node ID":264,"Location":"E-Cubed Academy Senior High","Latitude":41.85417,"Longitude":-71.43444},{"datetime":"2023-03-04 06:00:00","co2_corrected":459.0,"temp":2.9960251667,"Sensor ID":"Bs52202","Node ID":264,"Location":"E-Cubed Academy Senior High","Latitude":41.85417,"Longitude":-71.43444},{"datetime":"2023-03-04 05:00:00","co2_corrected":455.0,"temp":2.4904693333,"Sensor ID":"Bs52202","Node ID":264,"Location":"E-Cubed Academy Senior High","Latitude":41.85417,"Longitude":-71.43444},{"datetime":"2023-03-04 13:00:00","co2_corrected":452.0,"temp":4.3446374576,"Sensor ID":"Bs42202","Node ID":261,"Location":"Anthony Carnevale Elementary","Latitude":41.81678,"Longitude":-71.46458},{"datetime":"2023-03-04 12:00:00","co2_corrected":453.0,"temp":3.956187,"Sensor ID":"Bs42202","Node ID":261,"Location":"Anthony Carnevale Elementary","Latitude":41.81678,"Longitude":-71.46458},{"datetime":"2023-03-04 11:00:00","co2_corrected":452.0,"temp":4.1646793333,"Sensor ID":"Bs42202","Node ID":261,"Location":"Anthony Carnevale Elementary","Latitude":41.81678,"Longitude":-71.46458},{"datetime":"2023-03-04 10:00:00","co2_corrected":452.0,"temp":3.5068748333,"Sensor ID":"Bs42202","Node ID":261,"Location":"Anthony Carnevale Elementary","Latitude":41.81678,"Longitude":-71.46458},{"datetime":"2023-03-04 09:00:00","co2_corrected":452.0,"temp":2.7364393333,"Sensor ID":"Bs42202","Node ID":261,"Location":"Anthony Carnevale Elementary","Latitude":41.81678,"Longitude":-71.46458},{"datetime":"2023-03-04 08:00:00","co2_corrected":454.0,"temp":2.1655603333,"Sensor ID":"Bs42202","Node ID":261,"Location":"Anthony Carnevale Elementary","Latitude":41.81678,"Longitude":-71.46458},{"datetime":"2023-03-04 07:00:00","co2_corrected":454.0,"temp":2.5204621667,"Sensor ID":"Bs42202","Node ID":261,"Location":"Anthony Carnevale Elementary","Latitude":41.81678,"Longitude":-71.46458},{"datetime":"2023-03-04 06:00:00","co2_corrected":454.0,"temp":2.2396336667,"Sensor ID":"Bs42202","Node ID":261,"Location":"Anthony Carnevale Elementary","Latitude":41.81678,"Longitude":-71.46458},{"datetime":"2023-03-04 05:00:00","co2_corrected":452.0,"temp":1.7627758333,"Sensor ID":"Bs42202","Node ID":261,"Location":"Anthony Carnevale Elementary","Latitude":41.81678,"Longitude":-71.46458},{"datetime":"2023-03-04 10:00:00","co2_corrected":448.0,"temp":5.3888438333,"Sensor ID":"Bs162202","Node ID":263,"Location":"South Providence Library","Latitude":41.80205,"Longitude":-71.41378},{"datetime":"2023-03-04 09:00:00","co2_corrected":443.0,"temp":4.7074203333,"Sensor ID":"Bs162202","Node ID":263,"Location":"South Providence Library","Latitude":41.80205,"Longitude":-71.41378},{"datetime":"2023-03-04 08:00:00","co2_corrected":454.0,"temp":4.3136695,"Sensor ID":"Bs162202","Node ID":263,"Location":"South Providence Library","Latitude":41.80205,"Longitude":-71.41378},{"datetime":"2023-03-04 07:00:00","co2_corrected":453.0,"temp":4.5321846667,"Sensor ID":"Bs162202","Node ID":263,"Location":"South Providence Library","Latitude":41.80205,"Longitude":-71.41378},{"datetime":"2023-03-04 06:00:00","co2_corrected":442.0,"temp":4.1672951667,"Sensor ID":"Bs162202","Node ID":263,"Location":"South Providence Library","Latitude":41.80205,"Longitude":-71.41378},{"datetime":"2023-03-04 05:00:00","co2_corrected":450.0,"temp":3.6303641667,"Sensor ID":"Bs162202","Node ID":263,"Location":"South Providence Library","Latitude":41.80205,"Longitude":-71.41378},{"datetime":-1,"co2_corrected":-1.0,"temp":-1.0,"Sensor ID":"Bs12202","Node ID":250,"Location":"Myron J. Francis Elementary","Latitude":41.84094,"Longitude":-71.36093},{"datetime":-1,"co2_corrected":-1.0,"temp":-1.0,"Sensor ID":"Bs62202","Node ID":267,"Location":"Rochambeau Library","Latitude":41.84621,"Longitude":-71.39663},{"datetime":-1,"co2_corrected":-1.0,"temp":-1.0,"Sensor ID":"Bs112202","Node ID":252,"Location":"West End Community Center","Latitude":41.80439,"Longitude":-71.42825},{"datetime":-1,"co2_corrected":-1.0,"temp":-1.0,"Sensor ID":"Bs122202","Node ID":255,"Location":"United Way","Latitude":41.81803,"Longitude":-71.44121},{"datetime":-1,"co2_corrected":-1.0,"temp":-1.0,"Sensor ID":"Bs132202","Node ID":255,"Location":"Providence Housing Authority  ","Latitude":41.81714,"Longitude":-71.45533},{"datetime":-1,"co2_corrected":-1.0,"temp":-1.0,"Sensor ID":"Bs142202","Node ID":259,"Location":"CCRI - Liston Campus","Latitude":41.80745,"Longitude":-71.41341},{"datetime":-1,"co2_corrected":-1.0,"temp":-1.0,"Sensor ID":"Bs152202","Node ID":262,"Location":"Main Street Martial Arts","Latitude":41.85521,"Longitude":-71.40042},{"datetime":-1,"co2_corrected":-1.0,"temp":-1.0,"Sensor ID":"Bs192202","Node ID":272,"Location":"Rock Spot","Latitude":41.81509,"Longitude":-71.42216}]