[{"datetime":"2023-02-28 11:00:00","co2_corrected":466.0,"temp":4.7091105,"Sensor ID":"Bs122202","Node ID":255,"Location":"United Way","Latitude":41.81803,"Longitude":-71.44121},{"datetime":"2023-02-28 11:00:00","co2_corrected":466.0,"temp":4.7091105,"Sensor ID":"Bs122202","Node ID":255,"Location":"United Way","Latitude":41.81803,"Longitude":-71.44121},{"datetime":"2023-02-28 10:00:00","co2_corrected":469.0,"temp":3.9234053333,"Sensor ID":"Bs122202","Node ID":255,"Location":"United Way","Latitude":41.81803,"Longitude":-71.44121},{"datetime":"2023-02-28 10:00:00","co2_corrected":469.0,"temp":3.9234053333,"Sensor ID":"Bs122202","Node ID":255,"Location":"United Way","Latitude":41.81803,"Longitude":-71.44121},{"datetime":"2023-02-28 09:00:00","co2_corrected":482.0,"temp":2.2574276667,"Sensor ID":"Bs122202","Node ID":255,"Location":"United Way","Latitude":41.81803,"Longitude":-71.44121},{"datetime":"2023-02-28 09:00:00","co2_corrected":482.0,"temp":2.2574276667,"Sensor ID":"Bs122202","Node ID":255,"Location":"United Way","Latitude":41.81803,"Longitude":-71.44121},{"datetime":"2023-02-28 08:00:00","co2_corrected":474.0,"temp":1.2071801667,"Sensor ID":"Bs122202","Node ID":255,"Location":"United Way","Latitude":41.81803,"Longitude":-71.44121},{"datetime":"2023-02-28 08:00:00","co2_corrected":474.0,"temp":1.2071801667,"Sensor ID":"Bs122202","Node ID":255,"Location":"United Way","Latitude":41.81803,"Longitude":-71.44121},{"datetime":"2023-02-28 07:00:00","co2_corrected":470.0,"temp":0.7232883333,"Sensor ID":"Bs122202","Node ID":255,"Location":"United Way","Latitude":41.81803,"Longitude":-71.44121},{"datetime":"2023-02-28 07:00:00","co2_corrected":470.0,"temp":0.7232883333,"Sensor ID":"Bs122202","Node ID":255,"Location":"United Way","Latitude":41.81803,"Longitude":-71.44121},{"datetime":"2023-02-28 06:00:00","co2_corrected":469.0,"temp":0.4375583333,"Sensor ID":"Bs122202","Node ID":255,"Location":"United Way","Latitude":41.81803,"Longitude":-71.44121},{"datetime":"2023-02-28 06:00:00","co2_corrected":469.0,"temp":0.4375583333,"Sensor ID":"Bs122202","Node ID":255,"Location":"United Way","Latitude":41.81803,"Longitude":-71.44121},{"datetime":"2023-02-28 05:00:00","co2_corrected":465.0,"temp":0.0982701667,"Sensor ID":"Bs122202","Node ID":255,"Location":"United Way","Latitude":41.81803,"Longitude":-71.44121},{"datetime":"2023-02-28 05:00:00","co2_corrected":465.0,"temp":0.0982701667,"Sensor ID":"Bs122202","Node ID":255,"Location":"United Way","Latitude":41.81803,"Longitude":-71.44121},{"datetime":"2023-02-28 11:00:00","co2_corrected":466.0,"temp":4.7091105,"Sensor ID":"Bs132202","Node ID":255,"Location":"Providence Housing Authority  ","Latitude":41.81714,"Longitude":-71.45533},{"datetime":"2023-02-28 11:00:00","co2_corrected":466.0,"temp":4.7091105,"Sensor ID":"Bs132202","Node ID":255,"Location":"Providence Housing Authority  ","Latitude":41.81714,"Longitude":-71.45533},{"datetime":"2023-02-28 10:00:00","co2_corrected":469.0,"temp":3.9234053333,"Sensor ID":"Bs132202","Node ID":255,"Location":"Providence Housing Authority  ","Latitude":41.81714,"Longitude":-71.45533},{"datetime":"2023-02-28 10:00:00","co2_corrected":469.0,"temp":3.9234053333,"Sensor ID":"Bs132202","Node ID":255,"Location":"Providence Housing Authority  ","Latitude":41.81714,"Longitude":-71.45533},{"datetime":"2023-02-28 09:00:00","co2_corrected":482.0,"temp":2.2574276667,"Sensor ID":"Bs132202","Node ID":255,"Location":"Providence Housing Authority  ","Latitude":41.81714,"Longitude":-71.45533},{"datetime":"2023-02-28 09:00:00","co2_corrected":482.0,"temp":2.2574276667,"Sensor ID":"Bs132202","Node ID":255,"Location":"Providence Housing Authority  ","Latitude":41.81714,"Longitude":-71.45533},{"datetime":"2023-02-28 08:00:00","co2_corrected":474.0,"temp":1.2071801667,"Sensor ID":"Bs132202","Node ID":255,"Location":"Providence Housing Authority  ","Latitude":41.81714,"Longitude":-71.45533},{"datetime":"2023-02-28 08:00:00","co2_corrected":474.0,"temp":1.2071801667,"Sensor ID":"Bs132202","Node ID":255,"Location":"Providence Housing Authority  ","Latitude":41.81714,"Longitude":-71.45533},{"datetime":"2023-02-28 07:00:00","co2_corrected":470.0,"temp":0.7232883333,"Sensor ID":"Bs132202","Node ID":255,"Location":"Providence Housing Authority  ","Latitude":41.81714,"Longitude":-71.45533},{"datetime":"2023-02-28 07:00:00","co2_corrected":470.0,"temp":0.7232883333,"Sensor ID":"Bs132202","Node ID":255,"Location":"Providence Housing Authority  ","Latitude":41.81714,"Longitude":-71.45533},{"datetime":"2023-02-28 06:00:00","co2_corrected":469.0,"temp":0.4375583333,"Sensor ID":"Bs132202","Node ID":255,"Location":"Providence Housing Authority  ","Latitude":41.81714,"Longitude":-71.45533},{"datetime":"2023-02-28 06:00:00","co2_corrected":469.0,"temp":0.4375583333,"Sensor ID":"Bs132202","Node ID":255,"Location":"Providence Housing Authority  ","Latitude":41.81714,"Longitude":-71.45533},{"datetime":"2023-02-28 05:00:00","co2_corrected":465.0,"temp":0.0982701667,"Sensor ID":"Bs132202","Node ID":255,"Location":"Providence Housing Authority  ","Latitude":41.81714,"Longitude":-71.45533},{"datetime":"2023-02-28 05:00:00","co2_corrected":465.0,"temp":0.0982701667,"Sensor ID":"Bs132202","Node ID":255,"Location":"Providence Housing Authority  ","Latitude":41.81714,"Longitude":-71.45533},{"datetime":"2023-02-28 11:00:00","co2_corrected":349.0,"temp":5.129895,"Sensor ID":"Bs142202","Node ID":259,"Location":"CCRI - Liston Campus","Latitude":41.80745,"Longitude":-71.41341},{"datetime":"2023-02-28 10:00:00","co2_corrected":349.0,"temp":4.5233536667,"Sensor ID":"Bs142202","Node ID":259,"Location":"CCRI - Liston Campus","Latitude":41.80745,"Longitude":-71.41341},{"datetime":"2023-02-28 09:00:00","co2_corrected":356.0,"temp":3.242525,"Sensor ID":"Bs142202","Node ID":259,"Location":"CCRI - Liston Campus","Latitude":41.80745,"Longitude":-71.41341},{"datetime":"2023-02-28 08:00:00","co2_corrected":354.0,"temp":2.1874546667,"Sensor ID":"Bs142202","Node ID":259,"Location":"CCRI - Liston Campus","Latitude":41.80745,"Longitude":-71.41341},{"datetime":"2023-02-28 07:00:00","co2_corrected":351.0,"temp":1.7117141667,"Sensor ID":"Bs142202","Node ID":259,"Location":"CCRI - Liston Campus","Latitude":41.80745,"Longitude":-71.41341},{"datetime":"2023-02-28 06:00:00","co2_corrected":350.0,"temp":1.3998931667,"Sensor ID":"Bs142202","Node ID":259,"Location":"CCRI - Liston Campus","Latitude":41.80745,"Longitude":-71.41341},{"datetime":"2023-02-28 05:00:00","co2_corrected":346.0,"temp":1.0298365,"Sensor ID":"Bs142202","Node ID":259,"Location":"CCRI - Liston Campus","Latitude":41.80745,"Longitude":-71.41341},{"datetime":"2023-02-28 11:00:00","co2_corrected":469.0,"temp":5.8406138333,"Sensor ID":"Bs82202","Node ID":274,"Location":"Alpert Medical School","Latitude":41.81898,"Longitude":-71.40826},{"datetime":"2023-02-28 10:00:00","co2_corrected":468.0,"temp":4.8046013333,"Sensor ID":"Bs82202","Node ID":274,"Location":"Alpert Medical School","Latitude":41.81898,"Longitude":-71.40826},{"datetime":"2023-02-28 09:00:00","co2_corrected":471.0,"temp":3.4449776667,"Sensor ID":"Bs82202","Node ID":274,"Location":"Alpert Medical School","Latitude":41.81898,"Longitude":-71.40826},{"datetime":"2023-02-28 08:00:00","co2_corrected":472.0,"temp":2.8322316667,"Sensor ID":"Bs82202","Node ID":274,"Location":"Alpert Medical School","Latitude":41.81898,"Longitude":-71.40826},{"datetime":"2023-02-28 07:00:00","co2_corrected":469.0,"temp":2.478394,"Sensor ID":"Bs82202","Node ID":274,"Location":"Alpert Medical School","Latitude":41.81898,"Longitude":-71.40826},{"datetime":"2023-02-28 06:00:00","co2_corrected":466.0,"temp":2.0714248333,"Sensor ID":"Bs82202","Node ID":274,"Location":"Alpert Medical School","Latitude":41.81898,"Longitude":-71.40826},{"datetime":"2023-02-28 05:00:00","co2_corrected":464.0,"temp":1.7772898333,"Sensor ID":"Bs82202","Node ID":274,"Location":"Alpert Medical School","Latitude":41.81898,"Longitude":-71.40826},{"datetime":"2023-02-28 11:00:00","co2_corrected":493.0,"temp":4.9720165,"Sensor ID":"Bs32202","Node ID":258,"Location":"Reservoir Ave Elementary","Latitude":41.79157,"Longitude":-71.42788},{"datetime":"2023-02-28 10:00:00","co2_corrected":497.0,"temp":3.7241418333,"Sensor ID":"Bs32202","Node ID":258,"Location":"Reservoir Ave Elementary","Latitude":41.79157,"Longitude":-71.42788},{"datetime":"2023-02-28 09:00:00","co2_corrected":507.0,"temp":2.0786581667,"Sensor ID":"Bs32202","Node ID":258,"Location":"Reservoir Ave Elementary","Latitude":41.79157,"Longitude":-71.42788},{"datetime":"2023-02-28 08:00:00","co2_corrected":507.0,"temp":1.1810088333,"Sensor ID":"Bs32202","Node ID":258,"Location":"Reservoir Ave Elementary","Latitude":41.79157,"Longitude":-71.42788},{"datetime":"2023-02-28 07:00:00","co2_corrected":505.0,"temp":0.7068305,"Sensor ID":"Bs32202","Node ID":258,"Location":"Reservoir Ave Elementary","Latitude":41.79157,"Longitude":-71.42788},{"datetime":"2023-02-28 06:00:00","co2_corrected":482.0,"temp":0.3594193333,"Sensor ID":"Bs32202","Node ID":258,"Location":"Reservoir Ave Elementary","Latitude":41.79157,"Longitude":-71.42788},{"datetime":"2023-02-28 05:00:00","co2_corrected":481.0,"temp":0.0232326667,"Sensor ID":"Bs32202","Node ID":258,"Location":"Reservoir Ave Elementary","Latitude":41.79157,"Longitude":-71.42788},{"datetime":"2023-02-28 11:00:00","co2_corrected":464.0,"temp":6.6210008333,"Sensor ID":"Bs152202","Node ID":262,"Location":"Main Street Martial Arts","Latitude":41.85521,"Longitude":-71.40042},{"datetime":"2023-02-28 10:00:00","co2_corrected":464.0,"temp":5.6860055,"Sensor ID":"Bs152202","Node ID":262,"Location":"Main Street Martial Arts","Latitude":41.85521,"Longitude":-71.40042},{"datetime":"2023-02-28 09:00:00","co2_corrected":476.0,"temp":3.5147791667,"Sensor ID":"Bs152202","Node ID":262,"Location":"Main Street Martial Arts","Latitude":41.85521,"Longitude":-71.40042},{"datetime":"2023-02-28 08:00:00","co2_corrected":476.0,"temp":2.3836371667,"Sensor ID":"Bs152202","Node ID":262,"Location":"Main Street Martial Arts","Latitude":41.85521,"Longitude":-71.40042},{"datetime":"2023-02-28 07:00:00","co2_corrected":472.0,"temp":1.9491566667,"Sensor ID":"Bs152202","Node ID":262,"Location":"Main Street Martial Arts","Latitude":41.85521,"Longitude":-71.40042},{"datetime":"2023-02-28 06:00:00","co2_corrected":470.0,"temp":1.6149903333,"Sensor ID":"Bs152202","Node ID":262,"Location":"Main Street Martial Arts","Latitude":41.85521,"Longitude":-71.40042},{"datetime":"2023-02-28 05:00:00","co2_corrected":468.0,"temp":1.4044553333,"Sensor ID":"Bs152202","Node ID":262,"Location":"Main Street Martial Arts","Latitude":41.85521,"Longitude":-71.40042},{"datetime":"2023-02-28 11:00:00","co2_corrected":474.0,"temp":5.0187146667,"Sensor ID":"Bs102202","Node ID":251,"Location":"Zuccolo Recreation Center","Latitude":41.82287,"Longitude":-71.43067},{"datetime":"2023-02-28 10:00:00","co2_corrected":474.0,"temp":3.868457,"Sensor ID":"Bs102202","Node ID":251,"Location":"Zuccolo Recreation Center","Latitude":41.82287,"Longitude":-71.43067},{"datetime":"2023-02-28 09:00:00","co2_corrected":485.0,"temp":2.4882518333,"Sensor ID":"Bs102202","Node ID":251,"Location":"Zuccolo Recreation Center","Latitude":41.82287,"Longitude":-71.43067},{"datetime":"2023-02-28 08:00:00","co2_corrected":478.0,"temp":1.6497855,"Sensor ID":"Bs102202","Node ID":251,"Location":"Zuccolo Recreation Center","Latitude":41.82287,"Longitude":-71.43067},{"datetime":"2023-02-28 07:00:00","co2_corrected":474.0,"temp":1.2345938333,"Sensor ID":"Bs102202","Node ID":251,"Location":"Zuccolo Recreation Center","Latitude":41.82287,"Longitude":-71.43067},{"datetime":"2023-02-28 06:00:00","co2_corrected":473.0,"temp":1.010189,"Sensor ID":"Bs102202","Node ID":251,"Location":"Zuccolo Recreation Center","Latitude":41.82287,"Longitude":-71.43067},{"datetime":"2023-02-28 05:00:00","co2_corrected":469.0,"temp":0.7765155,"Sensor ID":"Bs102202","Node ID":251,"Location":"Zuccolo Recreation Center","Latitude":41.82287,"Longitude":-71.43067},{"datetime":"2023-02-28 11:00:00","co2_corrected":664.0,"temp":5.735996,"Sensor ID":"Bs52202","Node ID":264,"Location":"E-Cubed Academy Senior High","Latitude":41.85417,"Longitude":-71.43444},{"datetime":"2023-02-28 10:00:00","co2_corrected":668.0,"temp":4.4350233333,"Sensor ID":"Bs52202","Node ID":264,"Location":"E-Cubed Academy Senior High","Latitude":41.85417,"Longitude":-71.43444},{"datetime":"2023-02-28 09:00:00","co2_corrected":675.0,"temp":2.3036453333,"Sensor ID":"Bs52202","Node ID":264,"Location":"E-Cubed Academy Senior High","Latitude":41.85417,"Longitude":-71.43444},{"datetime":"2023-02-28 08:00:00","co2_corrected":672.0,"temp":1.1907451667,"Sensor ID":"Bs52202","Node ID":264,"Location":"E-Cubed Academy Senior High","Latitude":41.85417,"Longitude":-71.43444},{"datetime":"2023-02-28 07:00:00","co2_corrected":670.0,"temp":0.6011236667,"Sensor ID":"Bs52202","Node ID":264,"Location":"E-Cubed Academy Senior High","Latitude":41.85417,"Longitude":-71.43444},{"datetime":"2023-02-28 06:00:00","co2_corrected":668.0,"temp":0.2619745,"Sensor ID":"Bs52202","Node ID":264,"Location":"E-Cubed Academy Senior High","Latitude":41.85417,"Longitude":-71.43444},{"datetime":"2023-02-28 05:00:00","co2_corrected":667.0,"temp":0.0791851667,"Sensor ID":"Bs52202","Node ID":264,"Location":"E-Cubed Academy Senior High","Latitude":41.85417,"Longitude":-71.43444},{"datetime":"2023-02-28 11:00:00","co2_corrected":461.0,"temp":7.830221,"Sensor ID":"Bs92202","Node ID":276,"Location":"Department of Public Works","Latitude":41.7952,"Longitude":-71.39784},{"datetime":"2023-02-28 10:00:00","co2_corrected":465.0,"temp":6.9172681667,"Sensor ID":"Bs92202","Node ID":276,"Location":"Department of Public Works","Latitude":41.7952,"Longitude":-71.39784},{"datetime":"2023-02-28 09:00:00","co2_corrected":469.0,"temp":5.1631405,"Sensor ID":"Bs92202","Node ID":276,"Location":"Department of Public Works","Latitude":41.7952,"Longitude":-71.39784},{"datetime":"2023-02-28 08:00:00","co2_corrected":468.0,"temp":4.3417676667,"Sensor ID":"Bs92202","Node ID":276,"Location":"Department of Public Works","Latitude":41.7952,"Longitude":-71.39784},{"datetime":"2023-02-28 07:00:00","co2_corrected":464.0,"temp":3.9567686667,"Sensor ID":"Bs92202","Node ID":276,"Location":"Department of Public Works","Latitude":41.7952,"Longitude":-71.39784},{"datetime":"2023-02-28 06:00:00","co2_corrected":463.0,"temp":3.6718376667,"Sensor ID":"Bs92202","Node ID":276,"Location":"Department of Public Works","Latitude":41.7952,"Longitude":-71.39784},{"datetime":"2023-02-28 05:00:00","co2_corrected":465.0,"temp":3.4834713333,"Sensor ID":"Bs92202","Node ID":276,"Location":"Department of Public Works","Latitude":41.7952,"Longitude":-71.39784},{"datetime":"2023-02-28 11:00:00","co2_corrected":459.0,"temp":3.8963676667,"Sensor ID":"Bs42202","Node ID":261,"Location":"Anthony Carnevale Elementary","Latitude":41.81678,"Longitude":-71.46458},{"datetime":"2023-02-28 10:00:00","co2_corrected":462.0,"temp":3.1028221667,"Sensor ID":"Bs42202","Node ID":261,"Location":"Anthony Carnevale Elementary","Latitude":41.81678,"Longitude":-71.46458},{"datetime":"2023-02-28 09:00:00","co2_corrected":468.0,"temp":1.525096,"Sensor ID":"Bs42202","Node ID":261,"Location":"Anthony Carnevale Elementary","Latitude":41.81678,"Longitude":-71.46458},{"datetime":"2023-02-28 08:00:00","co2_corrected":464.0,"temp":0.5205675,"Sensor ID":"Bs42202","Node ID":261,"Location":"Anthony Carnevale Elementary","Latitude":41.81678,"Longitude":-71.46458},{"datetime":"2023-02-28 07:00:00","co2_corrected":462.0,"temp":0.0167236667,"Sensor ID":"Bs42202","Node ID":261,"Location":"Anthony Carnevale Elementary","Latitude":41.81678,"Longitude":-71.46458},{"datetime":"2023-02-28 06:00:00","co2_corrected":461.0,"temp":-0.3141421667,"Sensor ID":"Bs42202","Node ID":261,"Location":"Anthony Carnevale Elementary","Latitude":41.81678,"Longitude":-71.46458},{"datetime":"2023-02-28 05:00:00","co2_corrected":460.0,"temp":-0.6597721667,"Sensor ID":"Bs42202","Node ID":261,"Location":"Anthony Carnevale Elementary","Latitude":41.81678,"Longitude":-71.46458},{"datetime":"2023-02-28 05:00:00","co2_corrected":444.0,"temp":1.7348645,"Sensor ID":"Bs162202","Node ID":263,"Location":"South Providence Library","Latitude":41.80205,"Longitude":-71.41378},{"datetime":-1,"co2_corrected":-1.0,"temp":-1.0,"Sensor ID":"Bs12202","Node ID":250,"Location":"Myron J. Francis Elementary","Latitude":41.84094,"Longitude":-71.36093},{"datetime":-1,"co2_corrected":-1.0,"temp":-1.0,"Sensor ID":"Bs22202","Node ID":254,"Location":"Silver Lake Residence","Latitude":41.81052,"Longitude":-71.44752},{"datetime":-1,"co2_corrected":-1.0,"temp":-1.0,"Sensor ID":"Bs62202","Node ID":267,"Location":"Rochambeau Library","Latitude":41.84621,"Longitude":-71.39663},{"datetime":-1,"co2_corrected":-1.0,"temp":-1.0,"Sensor ID":"Bs72202","Node ID":270,"Location":"Smith Hill Library","Latitude":41.83549,"Longitude":-71.42217},{"datetime":-1,"co2_corrected":-1.0,"temp":-1.0,"Sensor ID":"Bs112202","Node ID":252,"Location":"West End Community Center","Latitude":41.80439,"Longitude":-71.42825},{"datetime":-1,"co2_corrected":-1.0,"temp":-1.0,"Sensor ID":"Bs192202","Node ID":272,"Location":"Rock Spot","Latitude":41.81509,"Longitude":-71.42216}]