[{"co_wrk_aux":0.1651828333,"datetime":"2023-09-30 22:00:00","Sensor ID":"Bs22202","Node ID":254,"Location":"Silver Lake Residence","Latitude":41.81052,"Longitude":-71.44752,"Installation Date":"12\/1\/2022"},{"co_wrk_aux":0.15598,"datetime":"2023-09-30 23:00:00","Sensor ID":"Bs22202","Node ID":254,"Location":"Silver Lake Residence","Latitude":41.81052,"Longitude":-71.44752,"Installation Date":"12\/1\/2022"},{"co_wrk_aux":0.1513433333,"datetime":"2023-10-01 00:00:00","Sensor ID":"Bs22202","Node ID":254,"Location":"Silver Lake Residence","Latitude":41.81052,"Longitude":-71.44752,"Installation Date":"12\/1\/2022"},{"co_wrk_aux":0.1516191667,"datetime":"2023-10-01 01:00:00","Sensor ID":"Bs22202","Node ID":254,"Location":"Silver Lake Residence","Latitude":41.81052,"Longitude":-71.44752,"Installation Date":"12\/1\/2022"},{"co_wrk_aux":0.1465801667,"datetime":"2023-10-01 02:00:00","Sensor ID":"Bs22202","Node ID":254,"Location":"Silver Lake Residence","Latitude":41.81052,"Longitude":-71.44752,"Installation Date":"12\/1\/2022"},{"co_wrk_aux":0.1417895,"datetime":"2023-10-01 03:00:00","Sensor ID":"Bs22202","Node ID":254,"Location":"Silver Lake Residence","Latitude":41.81052,"Longitude":-71.44752,"Installation Date":"12\/1\/2022"},{"co_wrk_aux":0.1452131667,"datetime":"2023-10-01 04:00:00","Sensor ID":"Bs22202","Node ID":254,"Location":"Silver Lake Residence","Latitude":41.81052,"Longitude":-71.44752,"Installation Date":"12\/1\/2022"},{"co_wrk_aux":0.153995,"datetime":"2023-10-01 05:00:00","Sensor ID":"Bs22202","Node ID":254,"Location":"Silver Lake Residence","Latitude":41.81052,"Longitude":-71.44752,"Installation Date":"12\/1\/2022"},{"co_wrk_aux":0.1632051667,"datetime":"2023-10-01 06:00:00","Sensor ID":"Bs22202","Node ID":254,"Location":"Silver Lake Residence","Latitude":41.81052,"Longitude":-71.44752,"Installation Date":"12\/1\/2022"},{"co_wrk_aux":0.195759,"datetime":"2023-10-01 07:00:00","Sensor ID":"Bs22202","Node ID":254,"Location":"Silver Lake Residence","Latitude":41.81052,"Longitude":-71.44752,"Installation Date":"12\/1\/2022"},{"co_wrk_aux":0.2408731667,"datetime":"2023-10-01 08:00:00","Sensor ID":"Bs22202","Node ID":254,"Location":"Silver Lake Residence","Latitude":41.81052,"Longitude":-71.44752,"Installation Date":"12\/1\/2022"},{"co_wrk_aux":0.1865938333,"datetime":"2023-10-01 09:00:00","Sensor ID":"Bs22202","Node ID":254,"Location":"Silver Lake Residence","Latitude":41.81052,"Longitude":-71.44752,"Installation Date":"12\/1\/2022"},{"co_wrk_aux":0.1645263333,"datetime":"2023-10-01 10:00:00","Sensor ID":"Bs22202","Node ID":254,"Location":"Silver Lake Residence","Latitude":41.81052,"Longitude":-71.44752,"Installation Date":"12\/1\/2022"},{"co_wrk_aux":0.1580371667,"datetime":"2023-10-01 11:00:00","Sensor ID":"Bs22202","Node ID":254,"Location":"Silver Lake Residence","Latitude":41.81052,"Longitude":-71.44752,"Installation Date":"12\/1\/2022"},{"co_wrk_aux":0.1590071186,"datetime":"2023-10-01 12:00:00","Sensor ID":"Bs22202","Node ID":254,"Location":"Silver Lake Residence","Latitude":41.81052,"Longitude":-71.44752,"Installation Date":"12\/1\/2022"},{"co_wrk_aux":0.1758438333,"datetime":"2023-10-01 13:00:00","Sensor ID":"Bs22202","Node ID":254,"Location":"Silver Lake Residence","Latitude":41.81052,"Longitude":-71.44752,"Installation Date":"12\/1\/2022"},{"co_wrk_aux":0.1843616667,"datetime":"2023-10-01 14:00:00","Sensor ID":"Bs22202","Node ID":254,"Location":"Silver Lake Residence","Latitude":41.81052,"Longitude":-71.44752,"Installation Date":"12\/1\/2022"},{"co_wrk_aux":0.1983816667,"datetime":"2023-10-01 15:00:00","Sensor ID":"Bs22202","Node ID":254,"Location":"Silver Lake Residence","Latitude":41.81052,"Longitude":-71.44752,"Installation Date":"12\/1\/2022"},{"co_wrk_aux":0.2234671667,"datetime":"2023-10-01 16:00:00","Sensor ID":"Bs22202","Node ID":254,"Location":"Silver Lake Residence","Latitude":41.81052,"Longitude":-71.44752,"Installation Date":"12\/1\/2022"},{"co_wrk_aux":0.241002,"datetime":"2023-10-01 17:00:00","Sensor ID":"Bs22202","Node ID":254,"Location":"Silver Lake Residence","Latitude":41.81052,"Longitude":-71.44752,"Installation Date":"12\/1\/2022"},{"co_wrk_aux":0.3336915,"datetime":"2023-10-01 18:00:00","Sensor ID":"Bs22202","Node ID":254,"Location":"Silver Lake Residence","Latitude":41.81052,"Longitude":-71.44752,"Installation Date":"12\/1\/2022"},{"co_wrk_aux":0.5981248333,"datetime":"2023-10-01 19:00:00","Sensor ID":"Bs22202","Node ID":254,"Location":"Silver Lake Residence","Latitude":41.81052,"Longitude":-71.44752,"Installation Date":"12\/1\/2022"},{"co_wrk_aux":0.5845833333,"datetime":"2023-10-01 20:00:00","Sensor ID":"Bs22202","Node ID":254,"Location":"Silver Lake Residence","Latitude":41.81052,"Longitude":-71.44752,"Installation Date":"12\/1\/2022"},{"co_wrk_aux":0.423418,"datetime":"2023-10-01 21:00:00","Sensor ID":"Bs22202","Node ID":254,"Location":"Silver Lake Residence","Latitude":41.81052,"Longitude":-71.44752,"Installation Date":"12\/1\/2022"},{"co_wrk_aux":0.2300076667,"datetime":"2023-09-30 22:00:00","Sensor ID":"Bs82202","Node ID":274,"Location":"Alpert Medical School","Latitude":41.81898,"Longitude":-71.40826,"Installation Date":"7\/28\/2022"},{"co_wrk_aux":0.2144406667,"datetime":"2023-09-30 23:00:00","Sensor ID":"Bs82202","Node ID":274,"Location":"Alpert Medical School","Latitude":41.81898,"Longitude":-71.40826,"Installation Date":"7\/28\/2022"},{"co_wrk_aux":0.1932266667,"datetime":"2023-10-01 00:00:00","Sensor ID":"Bs82202","Node ID":274,"Location":"Alpert Medical School","Latitude":41.81898,"Longitude":-71.40826,"Installation Date":"7\/28\/2022"},{"co_wrk_aux":0.1859713333,"datetime":"2023-10-01 01:00:00","Sensor ID":"Bs82202","Node ID":274,"Location":"Alpert Medical School","Latitude":41.81898,"Longitude":-71.40826,"Installation Date":"7\/28\/2022"},{"co_wrk_aux":0.165123,"datetime":"2023-10-01 02:00:00","Sensor ID":"Bs82202","Node ID":274,"Location":"Alpert Medical School","Latitude":41.81898,"Longitude":-71.40826,"Installation Date":"7\/28\/2022"},{"co_wrk_aux":0.1581838333,"datetime":"2023-10-01 03:00:00","Sensor ID":"Bs82202","Node ID":274,"Location":"Alpert Medical School","Latitude":41.81898,"Longitude":-71.40826,"Installation Date":"7\/28\/2022"},{"co_wrk_aux":0.1806735,"datetime":"2023-10-01 04:00:00","Sensor ID":"Bs82202","Node ID":274,"Location":"Alpert Medical School","Latitude":41.81898,"Longitude":-71.40826,"Installation Date":"7\/28\/2022"},{"co_wrk_aux":0.1908236667,"datetime":"2023-10-01 05:00:00","Sensor ID":"Bs82202","Node ID":274,"Location":"Alpert Medical School","Latitude":41.81898,"Longitude":-71.40826,"Installation Date":"7\/28\/2022"},{"co_wrk_aux":0.189038,"datetime":"2023-10-01 06:00:00","Sensor ID":"Bs82202","Node ID":274,"Location":"Alpert Medical School","Latitude":41.81898,"Longitude":-71.40826,"Installation Date":"7\/28\/2022"},{"co_wrk_aux":0.2198556667,"datetime":"2023-10-01 07:00:00","Sensor ID":"Bs82202","Node ID":274,"Location":"Alpert Medical School","Latitude":41.81898,"Longitude":-71.40826,"Installation Date":"7\/28\/2022"},{"co_wrk_aux":0.2354581667,"datetime":"2023-10-01 08:00:00","Sensor ID":"Bs82202","Node ID":274,"Location":"Alpert Medical School","Latitude":41.81898,"Longitude":-71.40826,"Installation Date":"7\/28\/2022"},{"co_wrk_aux":0.2160631667,"datetime":"2023-10-01 09:00:00","Sensor ID":"Bs82202","Node ID":274,"Location":"Alpert Medical School","Latitude":41.81898,"Longitude":-71.40826,"Installation Date":"7\/28\/2022"},{"co_wrk_aux":0.1774718333,"datetime":"2023-10-01 10:00:00","Sensor ID":"Bs82202","Node ID":274,"Location":"Alpert Medical School","Latitude":41.81898,"Longitude":-71.40826,"Installation Date":"7\/28\/2022"},{"co_wrk_aux":0.1742275,"datetime":"2023-09-30 22:00:00","Sensor ID":"Bs72202","Node ID":270,"Location":"Smith Hill Library","Latitude":41.83549,"Longitude":-71.42217,"Installation Date":"8\/25\/2022"},{"co_wrk_aux":0.1643313333,"datetime":"2023-09-30 23:00:00","Sensor ID":"Bs72202","Node ID":270,"Location":"Smith Hill Library","Latitude":41.83549,"Longitude":-71.42217,"Installation Date":"8\/25\/2022"},{"co_wrk_aux":0.1392326667,"datetime":"2023-10-01 00:00:00","Sensor ID":"Bs72202","Node ID":270,"Location":"Smith Hill Library","Latitude":41.83549,"Longitude":-71.42217,"Installation Date":"8\/25\/2022"},{"co_wrk_aux":0.1333768333,"datetime":"2023-10-01 01:00:00","Sensor ID":"Bs72202","Node ID":270,"Location":"Smith Hill Library","Latitude":41.83549,"Longitude":-71.42217,"Installation Date":"8\/25\/2022"},{"co_wrk_aux":0.1364126667,"datetime":"2023-10-01 02:00:00","Sensor ID":"Bs72202","Node ID":270,"Location":"Smith Hill Library","Latitude":41.83549,"Longitude":-71.42217,"Installation Date":"8\/25\/2022"},{"co_wrk_aux":0.1296256667,"datetime":"2023-10-01 03:00:00","Sensor ID":"Bs72202","Node ID":270,"Location":"Smith Hill Library","Latitude":41.83549,"Longitude":-71.42217,"Installation Date":"8\/25\/2022"},{"co_wrk_aux":0.1339265,"datetime":"2023-10-01 04:00:00","Sensor ID":"Bs72202","Node ID":270,"Location":"Smith Hill Library","Latitude":41.83549,"Longitude":-71.42217,"Installation Date":"8\/25\/2022"},{"co_wrk_aux":0.1418695,"datetime":"2023-10-01 05:00:00","Sensor ID":"Bs72202","Node ID":270,"Location":"Smith Hill Library","Latitude":41.83549,"Longitude":-71.42217,"Installation Date":"8\/25\/2022"},{"co_wrk_aux":0.1410271667,"datetime":"2023-10-01 06:00:00","Sensor ID":"Bs72202","Node ID":270,"Location":"Smith Hill Library","Latitude":41.83549,"Longitude":-71.42217,"Installation Date":"8\/25\/2022"},{"co_wrk_aux":0.1651213333,"datetime":"2023-10-01 07:00:00","Sensor ID":"Bs72202","Node ID":270,"Location":"Smith Hill Library","Latitude":41.83549,"Longitude":-71.42217,"Installation Date":"8\/25\/2022"},{"co_wrk_aux":0.181326,"datetime":"2023-10-01 08:00:00","Sensor ID":"Bs72202","Node ID":270,"Location":"Smith Hill Library","Latitude":41.83549,"Longitude":-71.42217,"Installation Date":"8\/25\/2022"},{"co_wrk_aux":0.1700061667,"datetime":"2023-10-01 09:00:00","Sensor ID":"Bs72202","Node ID":270,"Location":"Smith Hill Library","Latitude":41.83549,"Longitude":-71.42217,"Installation Date":"8\/25\/2022"},{"co_wrk_aux":0.1506153333,"datetime":"2023-10-01 10:00:00","Sensor ID":"Bs72202","Node ID":270,"Location":"Smith Hill Library","Latitude":41.83549,"Longitude":-71.42217,"Installation Date":"8\/25\/2022"},{"co_wrk_aux":0.1433955,"datetime":"2023-10-01 11:00:00","Sensor ID":"Bs72202","Node ID":270,"Location":"Smith Hill Library","Latitude":41.83549,"Longitude":-71.42217,"Installation Date":"8\/25\/2022"},{"co_wrk_aux":0.1444716949,"datetime":"2023-10-01 12:00:00","Sensor ID":"Bs72202","Node ID":270,"Location":"Smith Hill Library","Latitude":41.83549,"Longitude":-71.42217,"Installation Date":"8\/25\/2022"},{"co_wrk_aux":0.1528516667,"datetime":"2023-10-01 13:00:00","Sensor ID":"Bs72202","Node ID":270,"Location":"Smith Hill Library","Latitude":41.83549,"Longitude":-71.42217,"Installation Date":"8\/25\/2022"},{"co_wrk_aux":0.1686985,"datetime":"2023-10-01 14:00:00","Sensor ID":"Bs72202","Node ID":270,"Location":"Smith Hill Library","Latitude":41.83549,"Longitude":-71.42217,"Installation Date":"8\/25\/2022"},{"co_wrk_aux":0.1794565,"datetime":"2023-10-01 15:00:00","Sensor ID":"Bs72202","Node ID":270,"Location":"Smith Hill Library","Latitude":41.83549,"Longitude":-71.42217,"Installation Date":"8\/25\/2022"},{"co_wrk_aux":0.1942615,"datetime":"2023-10-01 16:00:00","Sensor ID":"Bs72202","Node ID":270,"Location":"Smith Hill Library","Latitude":41.83549,"Longitude":-71.42217,"Installation Date":"8\/25\/2022"},{"co_wrk_aux":0.2082421667,"datetime":"2023-10-01 17:00:00","Sensor ID":"Bs72202","Node ID":270,"Location":"Smith Hill Library","Latitude":41.83549,"Longitude":-71.42217,"Installation Date":"8\/25\/2022"},{"co_wrk_aux":0.300527,"datetime":"2023-10-01 18:00:00","Sensor ID":"Bs72202","Node ID":270,"Location":"Smith Hill Library","Latitude":41.83549,"Longitude":-71.42217,"Installation Date":"8\/25\/2022"},{"co_wrk_aux":0.3410093333,"datetime":"2023-10-01 19:00:00","Sensor ID":"Bs72202","Node ID":270,"Location":"Smith Hill Library","Latitude":41.83549,"Longitude":-71.42217,"Installation Date":"8\/25\/2022"},{"co_wrk_aux":0.5457295,"datetime":"2023-10-01 20:00:00","Sensor ID":"Bs72202","Node ID":270,"Location":"Smith Hill Library","Latitude":41.83549,"Longitude":-71.42217,"Installation Date":"8\/25\/2022"},{"co_wrk_aux":0.5209285,"datetime":"2023-10-01 21:00:00","Sensor ID":"Bs72202","Node ID":270,"Location":"Smith Hill Library","Latitude":41.83549,"Longitude":-71.42217,"Installation Date":"8\/25\/2022"},{"co_wrk_aux":0.1725356667,"datetime":"2023-09-30 22:00:00","Sensor ID":"Bs242202","Node ID":268,"Location":"Providence College","Latitude":41.84272,"Longitude":-71.43888,"Installation Date":"3\/16\/2023"},{"co_wrk_aux":0.160606,"datetime":"2023-09-30 23:00:00","Sensor ID":"Bs242202","Node ID":268,"Location":"Providence College","Latitude":41.84272,"Longitude":-71.43888,"Installation Date":"3\/16\/2023"},{"co_wrk_aux":0.1566218333,"datetime":"2023-10-01 00:00:00","Sensor ID":"Bs242202","Node ID":268,"Location":"Providence College","Latitude":41.84272,"Longitude":-71.43888,"Installation Date":"3\/16\/2023"},{"co_wrk_aux":0.1570065,"datetime":"2023-10-01 01:00:00","Sensor ID":"Bs242202","Node ID":268,"Location":"Providence College","Latitude":41.84272,"Longitude":-71.43888,"Installation Date":"3\/16\/2023"},{"co_wrk_aux":0.1570456667,"datetime":"2023-10-01 02:00:00","Sensor ID":"Bs242202","Node ID":268,"Location":"Providence College","Latitude":41.84272,"Longitude":-71.43888,"Installation Date":"3\/16\/2023"},{"co_wrk_aux":0.1576313333,"datetime":"2023-10-01 03:00:00","Sensor ID":"Bs242202","Node ID":268,"Location":"Providence College","Latitude":41.84272,"Longitude":-71.43888,"Installation Date":"3\/16\/2023"},{"co_wrk_aux":0.1654166667,"datetime":"2023-10-01 04:00:00","Sensor ID":"Bs242202","Node ID":268,"Location":"Providence College","Latitude":41.84272,"Longitude":-71.43888,"Installation Date":"3\/16\/2023"},{"co_wrk_aux":0.1686195,"datetime":"2023-10-01 05:00:00","Sensor ID":"Bs242202","Node ID":268,"Location":"Providence College","Latitude":41.84272,"Longitude":-71.43888,"Installation Date":"3\/16\/2023"},{"co_wrk_aux":0.1726323333,"datetime":"2023-10-01 06:00:00","Sensor ID":"Bs242202","Node ID":268,"Location":"Providence College","Latitude":41.84272,"Longitude":-71.43888,"Installation Date":"3\/16\/2023"},{"co_wrk_aux":0.1839441667,"datetime":"2023-10-01 07:00:00","Sensor ID":"Bs242202","Node ID":268,"Location":"Providence College","Latitude":41.84272,"Longitude":-71.43888,"Installation Date":"3\/16\/2023"},{"co_wrk_aux":0.1969818333,"datetime":"2023-10-01 08:00:00","Sensor ID":"Bs242202","Node ID":268,"Location":"Providence College","Latitude":41.84272,"Longitude":-71.43888,"Installation Date":"3\/16\/2023"},{"co_wrk_aux":0.1880091667,"datetime":"2023-10-01 09:00:00","Sensor ID":"Bs242202","Node ID":268,"Location":"Providence College","Latitude":41.84272,"Longitude":-71.43888,"Installation Date":"3\/16\/2023"},{"co_wrk_aux":0.1763705,"datetime":"2023-10-01 10:00:00","Sensor ID":"Bs242202","Node ID":268,"Location":"Providence College","Latitude":41.84272,"Longitude":-71.43888,"Installation Date":"3\/16\/2023"},{"co_wrk_aux":0.1633558333,"datetime":"2023-10-01 11:00:00","Sensor ID":"Bs242202","Node ID":268,"Location":"Providence College","Latitude":41.84272,"Longitude":-71.43888,"Installation Date":"3\/16\/2023"},{"co_wrk_aux":0.170530678,"datetime":"2023-10-01 12:00:00","Sensor ID":"Bs242202","Node ID":268,"Location":"Providence College","Latitude":41.84272,"Longitude":-71.43888,"Installation Date":"3\/16\/2023"},{"co_wrk_aux":0.1781013333,"datetime":"2023-10-01 13:00:00","Sensor ID":"Bs242202","Node ID":268,"Location":"Providence College","Latitude":41.84272,"Longitude":-71.43888,"Installation Date":"3\/16\/2023"},{"co_wrk_aux":0.1829491667,"datetime":"2023-10-01 14:00:00","Sensor ID":"Bs242202","Node ID":268,"Location":"Providence College","Latitude":41.84272,"Longitude":-71.43888,"Installation Date":"3\/16\/2023"},{"co_wrk_aux":0.1841238333,"datetime":"2023-10-01 15:00:00","Sensor ID":"Bs242202","Node ID":268,"Location":"Providence College","Latitude":41.84272,"Longitude":-71.43888,"Installation Date":"3\/16\/2023"},{"co_wrk_aux":0.2062588333,"datetime":"2023-10-01 16:00:00","Sensor ID":"Bs242202","Node ID":268,"Location":"Providence College","Latitude":41.84272,"Longitude":-71.43888,"Installation Date":"3\/16\/2023"},{"co_wrk_aux":0.241756,"datetime":"2023-10-01 17:00:00","Sensor ID":"Bs242202","Node ID":268,"Location":"Providence College","Latitude":41.84272,"Longitude":-71.43888,"Installation Date":"3\/16\/2023"},{"co_wrk_aux":0.2775928333,"datetime":"2023-10-01 18:00:00","Sensor ID":"Bs242202","Node ID":268,"Location":"Providence College","Latitude":41.84272,"Longitude":-71.43888,"Installation Date":"3\/16\/2023"},{"co_wrk_aux":0.3616073333,"datetime":"2023-10-01 19:00:00","Sensor ID":"Bs242202","Node ID":268,"Location":"Providence College","Latitude":41.84272,"Longitude":-71.43888,"Installation Date":"3\/16\/2023"},{"co_wrk_aux":0.3640421667,"datetime":"2023-10-01 20:00:00","Sensor ID":"Bs242202","Node ID":268,"Location":"Providence College","Latitude":41.84272,"Longitude":-71.43888,"Installation Date":"3\/16\/2023"},{"co_wrk_aux":0.3494631667,"datetime":"2023-10-01 21:00:00","Sensor ID":"Bs242202","Node ID":268,"Location":"Providence College","Latitude":41.84272,"Longitude":-71.43888,"Installation Date":"3\/16\/2023"},{"co_wrk_aux":-1.0,"datetime":-1,"Sensor ID":"Bs12202","Node ID":250,"Location":"Myron J. Francis Elementary","Latitude":41.84094,"Longitude":-71.36093,"Installation Date":"7\/11\/2022"},{"co_wrk_aux":-1.0,"datetime":-1,"Sensor ID":"Bs32202","Node ID":258,"Location":"Reservoir Ave Elementary","Latitude":41.79157,"Longitude":-71.42788,"Installation Date":"11\/17\/2022"},{"co_wrk_aux":-1.0,"datetime":-1,"Sensor ID":"Bs42202","Node ID":261,"Location":"Anthony Carnevale Elementary","Latitude":41.81678,"Longitude":-71.46458,"Installation Date":"12\/6\/2022"},{"co_wrk_aux":-1.0,"datetime":-1,"Sensor ID":"Bs52202","Node ID":264,"Location":"E-Cubed Academy Senior High","Latitude":41.85417,"Longitude":-71.43444,"Installation Date":"11\/17\/2022"},{"co_wrk_aux":-1.0,"datetime":-1,"Sensor ID":"Bs62202","Node ID":267,"Location":"Rochambeau Library","Latitude":41.84621,"Longitude":-71.39663,"Installation Date":"8\/25\/2022"},{"co_wrk_aux":-1.0,"datetime":-1,"Sensor ID":"Bs92202","Node ID":276,"Location":"Department of Public Works","Latitude":41.7952,"Longitude":-71.39784,"Installation Date":"8\/9\/2022"},{"co_wrk_aux":-1.0,"datetime":-1,"Sensor ID":"Bs102202","Node ID":251,"Location":"Zuccolo Recreation Center","Latitude":41.82287,"Longitude":-71.43067,"Installation Date":"10\/4\/2022"},{"co_wrk_aux":-1.0,"datetime":-1,"Sensor ID":"Bs112202","Node ID":252,"Location":"West End Community Center","Latitude":41.80439,"Longitude":-71.42825,"Installation Date":"9\/2\/2022"},{"co_wrk_aux":-1.0,"datetime":-1,"Sensor ID":"Bs122202","Node ID":255,"Location":"United Way","Latitude":41.81803,"Longitude":-71.44121,"Installation Date":"11\/19\/2022"},{"co_wrk_aux":-1.0,"datetime":-1,"Sensor ID":"Bs132202","Node ID":257,"Location":"Providence Housing Authority  ","Latitude":41.81714,"Longitude":-71.45533,"Installation Date":"8\/9\/2022"},{"co_wrk_aux":-1.0,"datetime":-1,"Sensor ID":"Bs142202","Node ID":259,"Location":"CCRI - Liston Campus","Latitude":41.80745,"Longitude":-71.41341,"Installation Date":"10\/27\/2022"},{"co_wrk_aux":-1.0,"datetime":-1,"Sensor ID":"Bs152202","Node ID":262,"Location":"Main Street Martial Arts","Latitude":41.85521,"Longitude":-71.40042,"Installation Date":"11\/11\/2022"},{"co_wrk_aux":-1.0,"datetime":-1,"Sensor ID":"Bs162202","Node ID":263,"Location":"South Providence Library","Latitude":41.80205,"Longitude":-71.41378,"Installation Date":"8\/25\/2022"},{"co_wrk_aux":-1.0,"datetime":-1,"Sensor ID":"Bs192202","Node ID":272,"Location":"Rock Spot","Latitude":41.81509,"Longitude":-71.42216,"Installation Date":"12\/15\/2022"},{"co_wrk_aux":-1.0,"datetime":-1,"Sensor ID":"Bs172202","Node ID":266,"Location":"Blackstone Residence","Latitude":41.83551,"Longitude":-71.38335,"Installation Date":"3\/6\/2023"},{"co_wrk_aux":-1.0,"datetime":-1,"Sensor ID":"Bs182202","Node ID":269,"Location":"Brown-Fox Point Early Childhood Education Center","Latitude":41.82467,"Longitude":-71.3975,"Installation Date":"2\/2\/2023"},{"co_wrk_aux":-1.0,"datetime":-1,"Sensor ID":"Bs232202","Node ID":265,"Location":"Rhode Island College","Latitude":41.84212,"Longitude":-71.46526,"Installation Date":"3\/16\/2023"},{"co_wrk_aux":-1.0,"datetime":-1,"Sensor ID":"Bs212202","Node ID":256,"Location":"Child & Family Services","Latitude":41.79079,"Longitude":-71.40307,"Installation Date":"5\/25\/2023"},{"co_wrk_aux":-1.0,"datetime":-1,"Sensor ID":"Bs222202","Node ID":260,"Location":"Mt. Pleasant Hardware","Latitude":41.83168,"Longitude":-71.444401,"Installation Date":"9\/1\/2023"}]