[{"datetime":1677160800000,"co2_corrected":468.0,"temp":3.789814,"Sensor ID":"Bs72202","Node ID":270,"Location":"Smith Hill Library","Latitude":41.83549,"Longitude":-71.42217},{"datetime":1677160800000,"co2_corrected":463.0,"temp":2.5643431667,"Sensor ID":"Bs42202","Node ID":261,"Location":"Anthony Carnevale Elementary","Latitude":41.81678,"Longitude":-71.46458},{"datetime":1677160800000,"co2_corrected":672.0,"temp":3.1392578333,"Sensor ID":"Bs52202","Node ID":264,"Location":"E-Cubed Academy Senior High","Latitude":41.85417,"Longitude":-71.43444},{"datetime":1677160800000,"co2_corrected":350.0,"temp":4.2042803333,"Sensor ID":"Bs142202","Node ID":259,"Location":"CCRI - Liston Campus","Latitude":41.80745,"Longitude":-71.41341},{"datetime":1677160800000,"co2_corrected":476.0,"temp":4.308696,"Sensor ID":"Bs192202","Node ID":272,"Location":"Rock Spot","Latitude":41.81509,"Longitude":-71.42216},{"datetime":1677160800000,"co2_corrected":471.0,"temp":3.6587301667,"Sensor ID":"Bs102202","Node ID":251,"Location":"Zuccolo Recreation Center","Latitude":41.82287,"Longitude":-71.43067},{"datetime":1677160800000,"co2_corrected":467.0,"temp":3.2344271667,"Sensor ID":"Bs122202","Node ID":255,"Location":"United Way","Latitude":41.81803,"Longitude":-71.44121},{"datetime":1677160800000,"co2_corrected":467.0,"temp":3.2344271667,"Sensor ID":"Bs122202","Node ID":255,"Location":"United Way","Latitude":41.81803,"Longitude":-71.44121},{"datetime":1677160800000,"co2_corrected":467.0,"temp":3.2344271667,"Sensor ID":"Bs132202","Node ID":255,"Location":"Providence Housing Authority  ","Latitude":41.81714,"Longitude":-71.45533},{"datetime":1677160800000,"co2_corrected":467.0,"temp":3.2344271667,"Sensor ID":"Bs132202","Node ID":255,"Location":"Providence Housing Authority  ","Latitude":41.81714,"Longitude":-71.45533},{"datetime":1677160800000,"co2_corrected":466.0,"temp":4.8347272881,"Sensor ID":"Bs82202","Node ID":274,"Location":"Alpert Medical School","Latitude":41.81898,"Longitude":-71.40826},{"datetime":1677160800000,"co2_corrected":461.0,"temp":4.3229038983,"Sensor ID":"Bs152202","Node ID":262,"Location":"Main Street Martial Arts","Latitude":41.85521,"Longitude":-71.40042},{"datetime":1677160800000,"co2_corrected":489.0,"temp":3.0797171667,"Sensor ID":"Bs32202","Node ID":258,"Location":"Reservoir Ave Elementary","Latitude":41.79157,"Longitude":-71.42788},{"datetime":1677160800000,"co2_corrected":462.0,"temp":6.596969,"Sensor ID":"Bs92202","Node ID":276,"Location":"Department of Public Works","Latitude":41.7952,"Longitude":-71.39784},{"datetime":-1,"co2_corrected":-1.0,"temp":-1.0,"Sensor ID":"Bs12202","Node ID":250,"Location":"Myron J. Francis Elementary","Latitude":41.84094,"Longitude":-71.36093},{"datetime":-1,"co2_corrected":-1.0,"temp":-1.0,"Sensor ID":"Bs22202","Node ID":254,"Location":"Silver Lake Residence","Latitude":41.81052,"Longitude":-71.44752},{"datetime":-1,"co2_corrected":-1.0,"temp":-1.0,"Sensor ID":"Bs62202","Node ID":267,"Location":"Rochambeau Library","Latitude":41.84621,"Longitude":-71.39663},{"datetime":-1,"co2_corrected":-1.0,"temp":-1.0,"Sensor ID":"Bs112202","Node ID":252,"Location":"West End Community Center","Latitude":41.80439,"Longitude":-71.42825},{"datetime":-1,"co2_corrected":-1.0,"temp":-1.0,"Sensor ID":"Bs162202","Node ID":263,"Location":"South Providence Library","Latitude":41.80205,"Longitude":-71.41378}]