[{"datetime":"2023-05-11 03:00:00","co2_corrected":483.0,"temp":13.6596938333,"Sensor ID":"Bs12202","Node ID":250,"Location":"Myron J. Francis Elementary","Latitude":41.84094,"Longitude":-71.36093,"Installation Date":"7\/11\/2022"},{"datetime":"2023-05-11 04:00:00","co2_corrected":489.0,"temp":13.1259176667,"Sensor ID":"Bs12202","Node ID":250,"Location":"Myron J. Francis Elementary","Latitude":41.84094,"Longitude":-71.36093,"Installation Date":"7\/11\/2022"},{"datetime":"2023-05-11 05:00:00","co2_corrected":502.0,"temp":12.4650633333,"Sensor ID":"Bs12202","Node ID":250,"Location":"Myron J. Francis Elementary","Latitude":41.84094,"Longitude":-71.36093,"Installation Date":"7\/11\/2022"},{"datetime":"2023-05-11 06:00:00","co2_corrected":500.0,"temp":13.2194653333,"Sensor ID":"Bs12202","Node ID":250,"Location":"Myron J. Francis Elementary","Latitude":41.84094,"Longitude":-71.36093,"Installation Date":"7\/11\/2022"},{"datetime":"2023-05-11 07:00:00","co2_corrected":486.0,"temp":17.2454573333,"Sensor ID":"Bs12202","Node ID":250,"Location":"Myron J. Francis Elementary","Latitude":41.84094,"Longitude":-71.36093,"Installation Date":"7\/11\/2022"},{"datetime":"2023-05-11 08:00:00","co2_corrected":460.0,"temp":28.7326901667,"Sensor ID":"Bs12202","Node ID":250,"Location":"Myron J. Francis Elementary","Latitude":41.84094,"Longitude":-71.36093,"Installation Date":"7\/11\/2022"},{"datetime":"2023-05-11 09:00:00","co2_corrected":446.0,"temp":32.834662,"Sensor ID":"Bs12202","Node ID":250,"Location":"Myron J. Francis Elementary","Latitude":41.84094,"Longitude":-71.36093,"Installation Date":"7\/11\/2022"},{"datetime":"2023-05-11 03:00:00","co2_corrected":459.0,"temp":17.5749263333,"Sensor ID":"Bs182202","Node ID":269,"Location":"Brown-Fox Point Early Childhood Education Center","Latitude":41.82467,"Longitude":-71.3975,"Installation Date":"2\/2\/2023"},{"datetime":"2023-05-11 04:00:00","co2_corrected":473.0,"temp":16.2026323333,"Sensor ID":"Bs182202","Node ID":269,"Location":"Brown-Fox Point Early Childhood Education Center","Latitude":41.82467,"Longitude":-71.3975,"Installation Date":"2\/2\/2023"},{"datetime":"2023-05-11 05:00:00","co2_corrected":495.0,"temp":15.7576486667,"Sensor ID":"Bs182202","Node ID":269,"Location":"Brown-Fox Point Early Childhood Education Center","Latitude":41.82467,"Longitude":-71.3975,"Installation Date":"2\/2\/2023"},{"datetime":"2023-05-11 06:00:00","co2_corrected":501.0,"temp":17.4398003333,"Sensor ID":"Bs182202","Node ID":269,"Location":"Brown-Fox Point Early Childhood Education Center","Latitude":41.82467,"Longitude":-71.3975,"Installation Date":"2\/2\/2023"},{"datetime":"2023-05-11 07:00:00","co2_corrected":469.0,"temp":20.2173335,"Sensor ID":"Bs182202","Node ID":269,"Location":"Brown-Fox Point Early Childhood Education Center","Latitude":41.82467,"Longitude":-71.3975,"Installation Date":"2\/2\/2023"},{"datetime":"2023-05-11 08:00:00","co2_corrected":469.0,"temp":25.2025473333,"Sensor ID":"Bs182202","Node ID":269,"Location":"Brown-Fox Point Early Childhood Education Center","Latitude":41.82467,"Longitude":-71.3975,"Installation Date":"2\/2\/2023"},{"datetime":"2023-05-11 09:00:00","co2_corrected":470.0,"temp":32.336819,"Sensor ID":"Bs182202","Node ID":269,"Location":"Brown-Fox Point Early Childhood Education Center","Latitude":41.82467,"Longitude":-71.3975,"Installation Date":"2\/2\/2023"},{"datetime":"2023-05-11 03:00:00","co2_corrected":462.0,"temp":13.4511225,"Sensor ID":"Bs192202","Node ID":272,"Location":"Rock Spot","Latitude":41.81509,"Longitude":-71.42216,"Installation Date":"12\/15\/2022"},{"datetime":"2023-05-11 04:00:00","co2_corrected":469.0,"temp":12.5435913333,"Sensor ID":"Bs192202","Node ID":272,"Location":"Rock Spot","Latitude":41.81509,"Longitude":-71.42216,"Installation Date":"12\/15\/2022"},{"datetime":"2023-05-11 05:00:00","co2_corrected":496.0,"temp":11.3964486667,"Sensor ID":"Bs192202","Node ID":272,"Location":"Rock Spot","Latitude":41.81509,"Longitude":-71.42216,"Installation Date":"12\/15\/2022"},{"datetime":"2023-05-11 06:00:00","co2_corrected":513.0,"temp":12.3840508333,"Sensor ID":"Bs192202","Node ID":272,"Location":"Rock Spot","Latitude":41.81509,"Longitude":-71.42216,"Installation Date":"12\/15\/2022"},{"datetime":"2023-05-11 07:00:00","co2_corrected":481.0,"temp":18.3168616667,"Sensor ID":"Bs192202","Node ID":272,"Location":"Rock Spot","Latitude":41.81509,"Longitude":-71.42216,"Installation Date":"12\/15\/2022"},{"datetime":"2023-05-11 08:00:00","co2_corrected":461.0,"temp":27.4899168333,"Sensor ID":"Bs192202","Node ID":272,"Location":"Rock Spot","Latitude":41.81509,"Longitude":-71.42216,"Installation Date":"12\/15\/2022"},{"datetime":"2023-05-11 09:00:00","co2_corrected":453.0,"temp":32.5156283333,"Sensor ID":"Bs192202","Node ID":272,"Location":"Rock Spot","Latitude":41.81509,"Longitude":-71.42216,"Installation Date":"12\/15\/2022"},{"datetime":"2023-05-11 03:00:00","co2_corrected":456.0,"temp":15.206077,"Sensor ID":"Bs152202","Node ID":262,"Location":"Main Street Martial Arts","Latitude":41.85521,"Longitude":-71.40042,"Installation Date":"11\/11\/2022"},{"datetime":"2023-05-11 04:00:00","co2_corrected":457.0,"temp":15.2482285,"Sensor ID":"Bs152202","Node ID":262,"Location":"Main Street Martial Arts","Latitude":41.85521,"Longitude":-71.40042,"Installation Date":"11\/11\/2022"},{"datetime":"2023-05-11 05:00:00","co2_corrected":470.0,"temp":14.0242871667,"Sensor ID":"Bs152202","Node ID":262,"Location":"Main Street Martial Arts","Latitude":41.85521,"Longitude":-71.40042,"Installation Date":"11\/11\/2022"},{"datetime":"2023-05-11 06:00:00","co2_corrected":491.0,"temp":15.1816125,"Sensor ID":"Bs152202","Node ID":262,"Location":"Main Street Martial Arts","Latitude":41.85521,"Longitude":-71.40042,"Installation Date":"11\/11\/2022"},{"datetime":"2023-05-11 07:00:00","co2_corrected":477.0,"temp":19.5092773333,"Sensor ID":"Bs152202","Node ID":262,"Location":"Main Street Martial Arts","Latitude":41.85521,"Longitude":-71.40042,"Installation Date":"11\/11\/2022"},{"datetime":"2023-05-11 08:00:00","co2_corrected":454.0,"temp":27.3855475,"Sensor ID":"Bs152202","Node ID":262,"Location":"Main Street Martial Arts","Latitude":41.85521,"Longitude":-71.40042,"Installation Date":"11\/11\/2022"},{"datetime":"2023-05-11 09:00:00","co2_corrected":444.0,"temp":31.563238,"Sensor ID":"Bs152202","Node ID":262,"Location":"Main Street Martial Arts","Latitude":41.85521,"Longitude":-71.40042,"Installation Date":"11\/11\/2022"},{"datetime":"2023-05-11 03:00:00","co2_corrected":461.0,"temp":15.6689346667,"Sensor ID":"Bs102202","Node ID":251,"Location":"Zuccolo Recreation Center","Latitude":41.82287,"Longitude":-71.43067,"Installation Date":"10\/4\/2022"},{"datetime":"2023-05-11 04:00:00","co2_corrected":466.0,"temp":14.8849975,"Sensor ID":"Bs102202","Node ID":251,"Location":"Zuccolo Recreation Center","Latitude":41.82287,"Longitude":-71.43067,"Installation Date":"10\/4\/2022"},{"datetime":"2023-05-11 05:00:00","co2_corrected":474.0,"temp":14.3357415,"Sensor ID":"Bs102202","Node ID":251,"Location":"Zuccolo Recreation Center","Latitude":41.82287,"Longitude":-71.43067,"Installation Date":"10\/4\/2022"},{"datetime":"2023-05-11 06:00:00","co2_corrected":513.0,"temp":14.6576551667,"Sensor ID":"Bs102202","Node ID":251,"Location":"Zuccolo Recreation Center","Latitude":41.82287,"Longitude":-71.43067,"Installation Date":"10\/4\/2022"},{"datetime":"2023-05-11 07:00:00","co2_corrected":483.0,"temp":16.7492468333,"Sensor ID":"Bs102202","Node ID":251,"Location":"Zuccolo Recreation Center","Latitude":41.82287,"Longitude":-71.43067,"Installation Date":"10\/4\/2022"},{"datetime":"2023-05-11 08:00:00","co2_corrected":457.0,"temp":20.5757335,"Sensor ID":"Bs102202","Node ID":251,"Location":"Zuccolo Recreation Center","Latitude":41.82287,"Longitude":-71.43067,"Installation Date":"10\/4\/2022"},{"datetime":"2023-05-11 09:00:00","co2_corrected":448.0,"temp":28.3264781667,"Sensor ID":"Bs102202","Node ID":251,"Location":"Zuccolo Recreation Center","Latitude":41.82287,"Longitude":-71.43067,"Installation Date":"10\/4\/2022"},{"datetime":"2023-05-11 03:00:00","co2_corrected":465.0,"temp":16.2609878333,"Sensor ID":"Bs92202","Node ID":276,"Location":"Department of Public Works","Latitude":41.7952,"Longitude":-71.39784,"Installation Date":"8\/9\/2022"},{"datetime":"2023-05-11 04:00:00","co2_corrected":471.0,"temp":15.7763045,"Sensor ID":"Bs92202","Node ID":276,"Location":"Department of Public Works","Latitude":41.7952,"Longitude":-71.39784,"Installation Date":"8\/9\/2022"},{"datetime":"2023-05-11 05:00:00","co2_corrected":480.0,"temp":15.3982221667,"Sensor ID":"Bs92202","Node ID":276,"Location":"Department of Public Works","Latitude":41.7952,"Longitude":-71.39784,"Installation Date":"8\/9\/2022"},{"datetime":"2023-05-11 06:00:00","co2_corrected":494.0,"temp":17.9915396667,"Sensor ID":"Bs92202","Node ID":276,"Location":"Department of Public Works","Latitude":41.7952,"Longitude":-71.39784,"Installation Date":"8\/9\/2022"},{"datetime":"2023-05-11 07:00:00","co2_corrected":503.0,"temp":24.37474,"Sensor ID":"Bs92202","Node ID":276,"Location":"Department of Public Works","Latitude":41.7952,"Longitude":-71.39784,"Installation Date":"8\/9\/2022"},{"datetime":"2023-05-11 08:00:00","co2_corrected":484.0,"temp":30.2584651667,"Sensor ID":"Bs92202","Node ID":276,"Location":"Department of Public Works","Latitude":41.7952,"Longitude":-71.39784,"Installation Date":"8\/9\/2022"},{"datetime":"2023-05-11 09:00:00","co2_corrected":455.0,"temp":32.4867535,"Sensor ID":"Bs92202","Node ID":276,"Location":"Department of Public Works","Latitude":41.7952,"Longitude":-71.39784,"Installation Date":"8\/9\/2022"},{"datetime":"2023-05-11 03:00:00","co2_corrected":465.0,"temp":16.0158671667,"Sensor ID":"Bs72202","Node ID":270,"Location":"Smith Hill Library","Latitude":41.83549,"Longitude":-71.42217,"Installation Date":"8\/25\/2022"},{"datetime":"2023-05-11 04:00:00","co2_corrected":473.0,"temp":15.0050271667,"Sensor ID":"Bs72202","Node ID":270,"Location":"Smith Hill Library","Latitude":41.83549,"Longitude":-71.42217,"Installation Date":"8\/25\/2022"},{"datetime":"2023-05-11 05:00:00","co2_corrected":487.0,"temp":14.1674338333,"Sensor ID":"Bs72202","Node ID":270,"Location":"Smith Hill Library","Latitude":41.83549,"Longitude":-71.42217,"Installation Date":"8\/25\/2022"},{"datetime":"2023-05-11 06:00:00","co2_corrected":509.0,"temp":15.6075071667,"Sensor ID":"Bs72202","Node ID":270,"Location":"Smith Hill Library","Latitude":41.83549,"Longitude":-71.42217,"Installation Date":"8\/25\/2022"},{"datetime":"2023-05-11 07:00:00","co2_corrected":478.0,"temp":23.2736136667,"Sensor ID":"Bs72202","Node ID":270,"Location":"Smith Hill Library","Latitude":41.83549,"Longitude":-71.42217,"Installation Date":"8\/25\/2022"},{"datetime":"2023-05-11 08:00:00","co2_corrected":463.0,"temp":31.254148,"Sensor ID":"Bs72202","Node ID":270,"Location":"Smith Hill Library","Latitude":41.83549,"Longitude":-71.42217,"Installation Date":"8\/25\/2022"},{"datetime":"2023-05-11 09:00:00","co2_corrected":453.0,"temp":36.2379585,"Sensor ID":"Bs72202","Node ID":270,"Location":"Smith Hill Library","Latitude":41.83549,"Longitude":-71.42217,"Installation Date":"8\/25\/2022"},{"datetime":"2023-05-11 03:00:00","co2_corrected":454.0,"temp":14.196117,"Sensor ID":"Bs242202","Node ID":268,"Location":"Providence College","Latitude":41.84272,"Longitude":-71.43888,"Installation Date":"3\/16\/2023"},{"datetime":"2023-05-11 04:00:00","co2_corrected":459.0,"temp":13.09587,"Sensor ID":"Bs242202","Node ID":268,"Location":"Providence College","Latitude":41.84272,"Longitude":-71.43888,"Installation Date":"3\/16\/2023"},{"datetime":"2023-05-11 05:00:00","co2_corrected":467.0,"temp":12.3878768333,"Sensor ID":"Bs242202","Node ID":268,"Location":"Providence College","Latitude":41.84272,"Longitude":-71.43888,"Installation Date":"3\/16\/2023"},{"datetime":"2023-05-11 06:00:00","co2_corrected":485.0,"temp":12.9008633333,"Sensor ID":"Bs242202","Node ID":268,"Location":"Providence College","Latitude":41.84272,"Longitude":-71.43888,"Installation Date":"3\/16\/2023"},{"datetime":"2023-05-11 07:00:00","co2_corrected":460.0,"temp":16.1569276667,"Sensor ID":"Bs242202","Node ID":268,"Location":"Providence College","Latitude":41.84272,"Longitude":-71.43888,"Installation Date":"3\/16\/2023"},{"datetime":"2023-05-11 08:00:00","co2_corrected":447.0,"temp":27.2098373333,"Sensor ID":"Bs242202","Node ID":268,"Location":"Providence College","Latitude":41.84272,"Longitude":-71.43888,"Installation Date":"3\/16\/2023"},{"datetime":"2023-05-11 09:00:00","co2_corrected":440.0,"temp":31.2593825,"Sensor ID":"Bs242202","Node ID":268,"Location":"Providence College","Latitude":41.84272,"Longitude":-71.43888,"Installation Date":"3\/16\/2023"},{"datetime":"2023-05-11 03:00:00","co2_corrected":470.0,"temp":15.1816268333,"Sensor ID":"Bs62202","Node ID":267,"Location":"Rochambeau Library","Latitude":41.84621,"Longitude":-71.39663,"Installation Date":"8\/25\/2022"},{"datetime":"2023-05-11 04:00:00","co2_corrected":473.0,"temp":14.2897078333,"Sensor ID":"Bs62202","Node ID":267,"Location":"Rochambeau Library","Latitude":41.84621,"Longitude":-71.39663,"Installation Date":"8\/25\/2022"},{"datetime":"2023-05-11 05:00:00","co2_corrected":477.0,"temp":13.6198801667,"Sensor ID":"Bs62202","Node ID":267,"Location":"Rochambeau Library","Latitude":41.84621,"Longitude":-71.39663,"Installation Date":"8\/25\/2022"},{"datetime":"2023-05-11 06:00:00","co2_corrected":491.0,"temp":15.1889255,"Sensor ID":"Bs62202","Node ID":267,"Location":"Rochambeau Library","Latitude":41.84621,"Longitude":-71.39663,"Installation Date":"8\/25\/2022"},{"datetime":"2023-05-11 07:00:00","co2_corrected":480.0,"temp":21.4698193333,"Sensor ID":"Bs62202","Node ID":267,"Location":"Rochambeau Library","Latitude":41.84621,"Longitude":-71.39663,"Installation Date":"8\/25\/2022"},{"datetime":"2023-05-11 08:00:00","co2_corrected":468.0,"temp":28.4682195,"Sensor ID":"Bs62202","Node ID":267,"Location":"Rochambeau Library","Latitude":41.84621,"Longitude":-71.39663,"Installation Date":"8\/25\/2022"},{"datetime":"2023-05-11 09:00:00","co2_corrected":455.0,"temp":32.9852005,"Sensor ID":"Bs62202","Node ID":267,"Location":"Rochambeau Library","Latitude":41.84621,"Longitude":-71.39663,"Installation Date":"8\/25\/2022"},{"datetime":"2023-05-11 03:00:00","co2_corrected":475.0,"temp":13.0987433333,"Sensor ID":"Bs42202","Node ID":261,"Location":"Anthony Carnevale Elementary","Latitude":41.81678,"Longitude":-71.46458,"Installation Date":"12\/6\/2022"},{"datetime":"2023-05-11 04:00:00","co2_corrected":470.0,"temp":12.8716838333,"Sensor ID":"Bs42202","Node ID":261,"Location":"Anthony Carnevale Elementary","Latitude":41.81678,"Longitude":-71.46458,"Installation Date":"12\/6\/2022"},{"datetime":"2023-05-11 05:00:00","co2_corrected":480.0,"temp":11.8667853333,"Sensor ID":"Bs42202","Node ID":261,"Location":"Anthony Carnevale Elementary","Latitude":41.81678,"Longitude":-71.46458,"Installation Date":"12\/6\/2022"},{"datetime":"2023-05-11 06:00:00","co2_corrected":488.0,"temp":13.5497236667,"Sensor ID":"Bs42202","Node ID":261,"Location":"Anthony Carnevale Elementary","Latitude":41.81678,"Longitude":-71.46458,"Installation Date":"12\/6\/2022"},{"datetime":"2023-05-11 07:00:00","co2_corrected":495.0,"temp":21.9789418333,"Sensor ID":"Bs42202","Node ID":261,"Location":"Anthony Carnevale Elementary","Latitude":41.81678,"Longitude":-71.46458,"Installation Date":"12\/6\/2022"},{"datetime":"2023-05-11 08:00:00","co2_corrected":454.0,"temp":28.9760128333,"Sensor ID":"Bs42202","Node ID":261,"Location":"Anthony Carnevale Elementary","Latitude":41.81678,"Longitude":-71.46458,"Installation Date":"12\/6\/2022"},{"datetime":"2023-05-11 09:00:00","co2_corrected":451.0,"temp":32.213874,"Sensor ID":"Bs42202","Node ID":261,"Location":"Anthony Carnevale Elementary","Latitude":41.81678,"Longitude":-71.46458,"Installation Date":"12\/6\/2022"},{"datetime":"2023-05-11 03:00:00","co2_corrected":492.0,"temp":12.6861991667,"Sensor ID":"Bs32202","Node ID":258,"Location":"Reservoir Ave Elementary","Latitude":41.79157,"Longitude":-71.42788,"Installation Date":"11\/17\/2022"},{"datetime":"2023-05-11 04:00:00","co2_corrected":509.0,"temp":11.3897981667,"Sensor ID":"Bs32202","Node ID":258,"Location":"Reservoir Ave Elementary","Latitude":41.79157,"Longitude":-71.42788,"Installation Date":"11\/17\/2022"},{"datetime":"2023-05-11 05:00:00","co2_corrected":525.0,"temp":10.6596428333,"Sensor ID":"Bs32202","Node ID":258,"Location":"Reservoir Ave Elementary","Latitude":41.79157,"Longitude":-71.42788,"Installation Date":"11\/17\/2022"},{"datetime":"2023-05-11 06:00:00","co2_corrected":545.0,"temp":11.7080378333,"Sensor ID":"Bs32202","Node ID":258,"Location":"Reservoir Ave Elementary","Latitude":41.79157,"Longitude":-71.42788,"Installation Date":"11\/17\/2022"},{"datetime":"2023-05-11 07:00:00","co2_corrected":530.0,"temp":18.5735571667,"Sensor ID":"Bs32202","Node ID":258,"Location":"Reservoir Ave Elementary","Latitude":41.79157,"Longitude":-71.42788,"Installation Date":"11\/17\/2022"},{"datetime":"2023-05-11 08:00:00","co2_corrected":486.0,"temp":27.2160795,"Sensor ID":"Bs32202","Node ID":258,"Location":"Reservoir Ave Elementary","Latitude":41.79157,"Longitude":-71.42788,"Installation Date":"11\/17\/2022"},{"datetime":"2023-05-11 09:00:00","co2_corrected":462.0,"temp":31.6392305,"Sensor ID":"Bs32202","Node ID":258,"Location":"Reservoir Ave Elementary","Latitude":41.79157,"Longitude":-71.42788,"Installation Date":"11\/17\/2022"},{"datetime":"2023-05-11 03:00:00","co2_corrected":478.0,"temp":16.9241741667,"Sensor ID":"Bs82202","Node ID":274,"Location":"Alpert Medical School","Latitude":41.81898,"Longitude":-71.40826,"Installation Date":"7\/28\/2022"},{"datetime":"2023-05-11 04:00:00","co2_corrected":487.0,"temp":16.2728428333,"Sensor ID":"Bs82202","Node ID":274,"Location":"Alpert Medical School","Latitude":41.81898,"Longitude":-71.40826,"Installation Date":"7\/28\/2022"},{"datetime":"2023-05-11 05:00:00","co2_corrected":511.0,"temp":15.2071518333,"Sensor ID":"Bs82202","Node ID":274,"Location":"Alpert Medical School","Latitude":41.81898,"Longitude":-71.40826,"Installation Date":"7\/28\/2022"},{"datetime":"2023-05-11 06:00:00","co2_corrected":513.0,"temp":17.3885261667,"Sensor ID":"Bs82202","Node ID":274,"Location":"Alpert Medical School","Latitude":41.81898,"Longitude":-71.40826,"Installation Date":"7\/28\/2022"},{"datetime":"2023-05-11 07:00:00","co2_corrected":493.0,"temp":23.239261,"Sensor ID":"Bs82202","Node ID":274,"Location":"Alpert Medical School","Latitude":41.81898,"Longitude":-71.40826,"Installation Date":"7\/28\/2022"},{"datetime":"2023-05-11 08:00:00","co2_corrected":489.0,"temp":29.5747721667,"Sensor ID":"Bs82202","Node ID":274,"Location":"Alpert Medical School","Latitude":41.81898,"Longitude":-71.40826,"Installation Date":"7\/28\/2022"},{"datetime":"2023-05-11 09:00:00","co2_corrected":494.0,"temp":31.7305731667,"Sensor ID":"Bs82202","Node ID":274,"Location":"Alpert Medical School","Latitude":41.81898,"Longitude":-71.40826,"Installation Date":"7\/28\/2022"},{"datetime":"2023-05-11 03:00:00","co2_corrected":460.0,"temp":14.0264081667,"Sensor ID":"Bs232202","Node ID":265,"Location":"Rhode Island College","Latitude":41.84212,"Longitude":-71.46526,"Installation Date":"3\/16\/2023"},{"datetime":"2023-05-11 04:00:00","co2_corrected":462.0,"temp":13.2516751667,"Sensor ID":"Bs232202","Node ID":265,"Location":"Rhode Island College","Latitude":41.84212,"Longitude":-71.46526,"Installation Date":"3\/16\/2023"},{"datetime":"2023-05-11 05:00:00","co2_corrected":463.0,"temp":12.7976136667,"Sensor ID":"Bs232202","Node ID":265,"Location":"Rhode Island College","Latitude":41.84212,"Longitude":-71.46526,"Installation Date":"3\/16\/2023"},{"datetime":"2023-05-11 06:00:00","co2_corrected":480.0,"temp":14.1306011667,"Sensor ID":"Bs232202","Node ID":265,"Location":"Rhode Island College","Latitude":41.84212,"Longitude":-71.46526,"Installation Date":"3\/16\/2023"},{"datetime":"2023-05-11 07:00:00","co2_corrected":467.0,"temp":18.6191195,"Sensor ID":"Bs232202","Node ID":265,"Location":"Rhode Island College","Latitude":41.84212,"Longitude":-71.46526,"Installation Date":"3\/16\/2023"},{"datetime":"2023-05-11 08:00:00","co2_corrected":447.0,"temp":28.8317773333,"Sensor ID":"Bs232202","Node ID":265,"Location":"Rhode Island College","Latitude":41.84212,"Longitude":-71.46526,"Installation Date":"3\/16\/2023"},{"datetime":"2023-05-11 09:00:00","co2_corrected":440.0,"temp":33.8392276667,"Sensor ID":"Bs232202","Node ID":265,"Location":"Rhode Island College","Latitude":41.84212,"Longitude":-71.46526,"Installation Date":"3\/16\/2023"},{"datetime":"2023-05-11 03:00:00","co2_corrected":460.0,"temp":15.6725285,"Sensor ID":"Bs22202","Node ID":254,"Location":"Silver Lake Residence","Latitude":41.81052,"Longitude":-71.44752,"Installation Date":"12\/1\/2022"},{"datetime":"2023-05-11 04:00:00","co2_corrected":459.0,"temp":15.3714818333,"Sensor ID":"Bs22202","Node ID":254,"Location":"Silver Lake Residence","Latitude":41.81052,"Longitude":-71.44752,"Installation Date":"12\/1\/2022"},{"datetime":"2023-05-11 05:00:00","co2_corrected":502.0,"temp":14.5454686667,"Sensor ID":"Bs22202","Node ID":254,"Location":"Silver Lake Residence","Latitude":41.81052,"Longitude":-71.44752,"Installation Date":"12\/1\/2022"},{"datetime":"2023-05-11 06:00:00","co2_corrected":519.0,"temp":14.2603673333,"Sensor ID":"Bs22202","Node ID":254,"Location":"Silver Lake Residence","Latitude":41.81052,"Longitude":-71.44752,"Installation Date":"12\/1\/2022"},{"datetime":"2023-05-11 07:00:00","co2_corrected":476.0,"temp":16.820761,"Sensor ID":"Bs22202","Node ID":254,"Location":"Silver Lake Residence","Latitude":41.81052,"Longitude":-71.44752,"Installation Date":"12\/1\/2022"},{"datetime":"2023-05-11 08:00:00","co2_corrected":450.0,"temp":21.526181,"Sensor ID":"Bs22202","Node ID":254,"Location":"Silver Lake Residence","Latitude":41.81052,"Longitude":-71.44752,"Installation Date":"12\/1\/2022"},{"datetime":"2023-05-11 09:00:00","co2_corrected":443.0,"temp":25.6153146667,"Sensor ID":"Bs22202","Node ID":254,"Location":"Silver Lake Residence","Latitude":41.81052,"Longitude":-71.44752,"Installation Date":"12\/1\/2022"},{"datetime":-1,"co2_corrected":-1.0,"temp":-1.0,"Sensor ID":"Bs52202","Node ID":264,"Location":"E-Cubed Academy Senior High","Latitude":41.85417,"Longitude":-71.43444,"Installation Date":"11\/17\/2022"},{"datetime":-1,"co2_corrected":-1.0,"temp":-1.0,"Sensor ID":"Bs112202","Node ID":252,"Location":"West End Community Center","Latitude":41.80439,"Longitude":-71.42825,"Installation Date":"9\/2\/2022"},{"datetime":-1,"co2_corrected":-1.0,"temp":-1.0,"Sensor ID":"Bs122202","Node ID":255,"Location":"United Way","Latitude":41.81803,"Longitude":-71.44121,"Installation Date":"11\/19\/2022"},{"datetime":-1,"co2_corrected":-1.0,"temp":-1.0,"Sensor ID":"Bs132202","Node ID":257,"Location":"Providence Housing Authority  ","Latitude":41.81714,"Longitude":-71.45533,"Installation Date":"8\/9\/2022"},{"datetime":-1,"co2_corrected":-1.0,"temp":-1.0,"Sensor ID":"Bs142202","Node ID":259,"Location":"CCRI - Liston Campus","Latitude":41.80745,"Longitude":-71.41341,"Installation Date":"10\/27\/2022"},{"datetime":-1,"co2_corrected":-1.0,"temp":-1.0,"Sensor ID":"Bs162202","Node ID":263,"Location":"South Providence Library","Latitude":41.80205,"Longitude":-71.41378,"Installation Date":"8\/25\/2022"},{"datetime":-1,"co2_corrected":-1.0,"temp":-1.0,"Sensor ID":"Bs172202","Node ID":266,"Location":"Blackstone Residence","Latitude":41.83551,"Longitude":-71.38335,"Installation Date":"3\/6\/2023"}]