[{"datetime":"2023-03-03 15:00:00","co2_corrected":468.0,"temp":22.058158,"Sensor ID":"Bs92202","Node ID":276,"Location":"Department of Public Works","Latitude":41.7952,"Longitude":-71.39784},{"datetime":"2023-03-03 14:00:00","co2_corrected":467.0,"temp":21.446097,"Sensor ID":"Bs92202","Node ID":276,"Location":"Department of Public Works","Latitude":41.7952,"Longitude":-71.39784},{"datetime":"2023-03-03 13:00:00","co2_corrected":471.0,"temp":21.3832388136,"Sensor ID":"Bs92202","Node ID":276,"Location":"Department of Public Works","Latitude":41.7952,"Longitude":-71.39784},{"datetime":"2023-03-03 12:00:00","co2_corrected":466.0,"temp":19.147901,"Sensor ID":"Bs92202","Node ID":276,"Location":"Department of Public Works","Latitude":41.7952,"Longitude":-71.39784},{"datetime":"2023-03-03 11:00:00","co2_corrected":467.0,"temp":15.8140868333,"Sensor ID":"Bs92202","Node ID":276,"Location":"Department of Public Works","Latitude":41.7952,"Longitude":-71.39784},{"datetime":"2023-03-03 10:00:00","co2_corrected":471.0,"temp":13.7778213333,"Sensor ID":"Bs92202","Node ID":276,"Location":"Department of Public Works","Latitude":41.7952,"Longitude":-71.39784},{"datetime":"2023-03-03 09:00:00","co2_corrected":482.0,"temp":9.2987801667,"Sensor ID":"Bs92202","Node ID":276,"Location":"Department of Public Works","Latitude":41.7952,"Longitude":-71.39784},{"datetime":"2023-03-03 08:00:00","co2_corrected":488.0,"temp":5.9573225,"Sensor ID":"Bs92202","Node ID":276,"Location":"Department of Public Works","Latitude":41.7952,"Longitude":-71.39784},{"datetime":"2023-03-03 07:00:00","co2_corrected":479.0,"temp":5.7405758333,"Sensor ID":"Bs92202","Node ID":276,"Location":"Department of Public Works","Latitude":41.7952,"Longitude":-71.39784},{"datetime":"2023-03-03 06:00:00","co2_corrected":469.0,"temp":6.505513,"Sensor ID":"Bs92202","Node ID":276,"Location":"Department of Public Works","Latitude":41.7952,"Longitude":-71.39784},{"datetime":"2023-03-03 05:00:00","co2_corrected":463.0,"temp":7.1811976667,"Sensor ID":"Bs92202","Node ID":276,"Location":"Department of Public Works","Latitude":41.7952,"Longitude":-71.39784},{"datetime":"2023-03-03 15:00:00","co2_corrected":465.0,"temp":22.9610206667,"Sensor ID":"Bs32202","Node ID":258,"Location":"Reservoir Ave Elementary","Latitude":41.79157,"Longitude":-71.42788},{"datetime":"2023-03-03 14:00:00","co2_corrected":462.0,"temp":24.8882171667,"Sensor ID":"Bs32202","Node ID":258,"Location":"Reservoir Ave Elementary","Latitude":41.79157,"Longitude":-71.42788},{"datetime":"2023-03-03 13:00:00","co2_corrected":466.0,"temp":22.8625759322,"Sensor ID":"Bs32202","Node ID":258,"Location":"Reservoir Ave Elementary","Latitude":41.79157,"Longitude":-71.42788},{"datetime":"2023-03-03 12:00:00","co2_corrected":472.0,"temp":18.6089288333,"Sensor ID":"Bs32202","Node ID":258,"Location":"Reservoir Ave Elementary","Latitude":41.79157,"Longitude":-71.42788},{"datetime":"2023-03-03 11:00:00","co2_corrected":474.0,"temp":14.2932073333,"Sensor ID":"Bs32202","Node ID":258,"Location":"Reservoir Ave Elementary","Latitude":41.79157,"Longitude":-71.42788},{"datetime":"2023-03-03 10:00:00","co2_corrected":480.0,"temp":7.4139706667,"Sensor ID":"Bs32202","Node ID":258,"Location":"Reservoir Ave Elementary","Latitude":41.79157,"Longitude":-71.42788},{"datetime":"2023-03-03 09:00:00","co2_corrected":485.0,"temp":2.8715583333,"Sensor ID":"Bs32202","Node ID":258,"Location":"Reservoir Ave Elementary","Latitude":41.79157,"Longitude":-71.42788},{"datetime":"2023-03-03 08:00:00","co2_corrected":486.0,"temp":1.0786206667,"Sensor ID":"Bs32202","Node ID":258,"Location":"Reservoir Ave Elementary","Latitude":41.79157,"Longitude":-71.42788},{"datetime":"2023-03-03 07:00:00","co2_corrected":485.0,"temp":1.1812138333,"Sensor ID":"Bs32202","Node ID":258,"Location":"Reservoir Ave Elementary","Latitude":41.79157,"Longitude":-71.42788},{"datetime":"2023-03-03 06:00:00","co2_corrected":485.0,"temp":1.6460776667,"Sensor ID":"Bs32202","Node ID":258,"Location":"Reservoir Ave Elementary","Latitude":41.79157,"Longitude":-71.42788},{"datetime":"2023-03-03 05:00:00","co2_corrected":474.0,"temp":2.7202001667,"Sensor ID":"Bs32202","Node ID":258,"Location":"Reservoir Ave Elementary","Latitude":41.79157,"Longitude":-71.42788},{"datetime":"2023-03-03 15:00:00","co2_corrected":462.0,"temp":19.5853231667,"Sensor ID":"Bs42202","Node ID":261,"Location":"Anthony Carnevale Elementary","Latitude":41.81678,"Longitude":-71.46458},{"datetime":"2023-03-03 14:00:00","co2_corrected":463.0,"temp":20.4801713333,"Sensor ID":"Bs42202","Node ID":261,"Location":"Anthony Carnevale Elementary","Latitude":41.81678,"Longitude":-71.46458},{"datetime":"2023-03-03 13:00:00","co2_corrected":461.0,"temp":18.6177642373,"Sensor ID":"Bs42202","Node ID":261,"Location":"Anthony Carnevale Elementary","Latitude":41.81678,"Longitude":-71.46458},{"datetime":"2023-03-03 12:00:00","co2_corrected":464.0,"temp":18.9930093333,"Sensor ID":"Bs42202","Node ID":261,"Location":"Anthony Carnevale Elementary","Latitude":41.81678,"Longitude":-71.46458},{"datetime":"2023-03-03 11:00:00","co2_corrected":465.0,"temp":15.2089595,"Sensor ID":"Bs42202","Node ID":261,"Location":"Anthony Carnevale Elementary","Latitude":41.81678,"Longitude":-71.46458},{"datetime":"2023-03-03 10:00:00","co2_corrected":470.0,"temp":11.8763518333,"Sensor ID":"Bs42202","Node ID":261,"Location":"Anthony Carnevale Elementary","Latitude":41.81678,"Longitude":-71.46458},{"datetime":"2023-03-03 09:00:00","co2_corrected":473.0,"temp":6.0145431667,"Sensor ID":"Bs42202","Node ID":261,"Location":"Anthony Carnevale Elementary","Latitude":41.81678,"Longitude":-71.46458},{"datetime":"2023-03-03 08:00:00","co2_corrected":477.0,"temp":1.0270836667,"Sensor ID":"Bs42202","Node ID":261,"Location":"Anthony Carnevale Elementary","Latitude":41.81678,"Longitude":-71.46458},{"datetime":"2023-03-03 07:00:00","co2_corrected":483.0,"temp":0.7120243333,"Sensor ID":"Bs42202","Node ID":261,"Location":"Anthony Carnevale Elementary","Latitude":41.81678,"Longitude":-71.46458},{"datetime":"2023-03-03 06:00:00","co2_corrected":476.0,"temp":1.0513496667,"Sensor ID":"Bs42202","Node ID":261,"Location":"Anthony Carnevale Elementary","Latitude":41.81678,"Longitude":-71.46458},{"datetime":"2023-03-03 05:00:00","co2_corrected":464.0,"temp":1.955744,"Sensor ID":"Bs42202","Node ID":261,"Location":"Anthony Carnevale Elementary","Latitude":41.81678,"Longitude":-71.46458},{"datetime":"2023-03-03 15:00:00","co2_corrected":468.0,"temp":22.0745731667,"Sensor ID":"Bs82202","Node ID":274,"Location":"Alpert Medical School","Latitude":41.81898,"Longitude":-71.40826},{"datetime":"2023-03-03 14:00:00","co2_corrected":472.0,"temp":20.472835,"Sensor ID":"Bs82202","Node ID":274,"Location":"Alpert Medical School","Latitude":41.81898,"Longitude":-71.40826},{"datetime":"2023-03-03 13:00:00","co2_corrected":464.0,"temp":14.9399098305,"Sensor ID":"Bs82202","Node ID":274,"Location":"Alpert Medical School","Latitude":41.81898,"Longitude":-71.40826},{"datetime":"2023-03-03 12:00:00","co2_corrected":463.0,"temp":10.1967196667,"Sensor ID":"Bs82202","Node ID":274,"Location":"Alpert Medical School","Latitude":41.81898,"Longitude":-71.40826},{"datetime":"2023-03-03 11:00:00","co2_corrected":465.0,"temp":8.3762256667,"Sensor ID":"Bs82202","Node ID":274,"Location":"Alpert Medical School","Latitude":41.81898,"Longitude":-71.40826},{"datetime":"2023-03-03 10:00:00","co2_corrected":470.0,"temp":9.6609266667,"Sensor ID":"Bs82202","Node ID":274,"Location":"Alpert Medical School","Latitude":41.81898,"Longitude":-71.40826},{"datetime":"2023-03-03 09:00:00","co2_corrected":480.0,"temp":6.3755991667,"Sensor ID":"Bs82202","Node ID":274,"Location":"Alpert Medical School","Latitude":41.81898,"Longitude":-71.40826},{"datetime":"2023-03-03 08:00:00","co2_corrected":480.0,"temp":4.1714485,"Sensor ID":"Bs82202","Node ID":274,"Location":"Alpert Medical School","Latitude":41.81898,"Longitude":-71.40826},{"datetime":"2023-03-03 07:00:00","co2_corrected":475.0,"temp":4.4957423333,"Sensor ID":"Bs82202","Node ID":274,"Location":"Alpert Medical School","Latitude":41.81898,"Longitude":-71.40826},{"datetime":"2023-03-03 06:00:00","co2_corrected":470.0,"temp":5.1024176667,"Sensor ID":"Bs82202","Node ID":274,"Location":"Alpert Medical School","Latitude":41.81898,"Longitude":-71.40826},{"datetime":"2023-03-03 05:00:00","co2_corrected":464.0,"temp":5.6011125,"Sensor ID":"Bs82202","Node ID":274,"Location":"Alpert Medical School","Latitude":41.81898,"Longitude":-71.40826},{"datetime":"2023-03-03 15:00:00","co2_corrected":460.0,"temp":19.0883636667,"Sensor ID":"Bs22202","Node ID":254,"Location":"Silver Lake Residence","Latitude":41.81052,"Longitude":-71.44752},{"datetime":"2023-03-03 14:00:00","co2_corrected":459.0,"temp":20.636973,"Sensor ID":"Bs22202","Node ID":254,"Location":"Silver Lake Residence","Latitude":41.81052,"Longitude":-71.44752},{"datetime":"2023-03-03 13:00:00","co2_corrected":458.0,"temp":19.9125133898,"Sensor ID":"Bs22202","Node ID":254,"Location":"Silver Lake Residence","Latitude":41.81052,"Longitude":-71.44752},{"datetime":"2023-03-03 12:00:00","co2_corrected":457.0,"temp":20.6797883333,"Sensor ID":"Bs22202","Node ID":254,"Location":"Silver Lake Residence","Latitude":41.81052,"Longitude":-71.44752},{"datetime":"2023-03-03 11:00:00","co2_corrected":458.0,"temp":19.2583345,"Sensor ID":"Bs22202","Node ID":254,"Location":"Silver Lake Residence","Latitude":41.81052,"Longitude":-71.44752},{"datetime":"2023-03-03 10:00:00","co2_corrected":460.0,"temp":15.2496356667,"Sensor ID":"Bs22202","Node ID":254,"Location":"Silver Lake Residence","Latitude":41.81052,"Longitude":-71.44752},{"datetime":"2023-03-03 09:00:00","co2_corrected":476.0,"temp":7.1696068333,"Sensor ID":"Bs22202","Node ID":254,"Location":"Silver Lake Residence","Latitude":41.81052,"Longitude":-71.44752},{"datetime":"2023-03-03 08:00:00","co2_corrected":483.0,"temp":3.4295971667,"Sensor ID":"Bs22202","Node ID":254,"Location":"Silver Lake Residence","Latitude":41.81052,"Longitude":-71.44752},{"datetime":"2023-03-03 07:00:00","co2_corrected":474.0,"temp":3.696762,"Sensor ID":"Bs22202","Node ID":254,"Location":"Silver Lake Residence","Latitude":41.81052,"Longitude":-71.44752},{"datetime":"2023-03-03 06:00:00","co2_corrected":473.0,"temp":4.1727823333,"Sensor ID":"Bs22202","Node ID":254,"Location":"Silver Lake Residence","Latitude":41.81052,"Longitude":-71.44752},{"datetime":"2023-03-03 05:00:00","co2_corrected":464.0,"temp":4.9228328333,"Sensor ID":"Bs22202","Node ID":254,"Location":"Silver Lake Residence","Latitude":41.81052,"Longitude":-71.44752},{"datetime":"2023-03-03 15:00:00","co2_corrected":462.0,"temp":20.8771303333,"Sensor ID":"Bs52202","Node ID":264,"Location":"E-Cubed Academy Senior High","Latitude":41.85417,"Longitude":-71.43444},{"datetime":"2023-03-03 14:00:00","co2_corrected":461.0,"temp":22.716062,"Sensor ID":"Bs52202","Node ID":264,"Location":"E-Cubed Academy Senior High","Latitude":41.85417,"Longitude":-71.43444},{"datetime":"2023-03-03 13:00:00","co2_corrected":461.0,"temp":21.6839283051,"Sensor ID":"Bs52202","Node ID":264,"Location":"E-Cubed Academy Senior High","Latitude":41.85417,"Longitude":-71.43444},{"datetime":"2023-03-03 12:00:00","co2_corrected":460.0,"temp":20.671938,"Sensor ID":"Bs52202","Node ID":264,"Location":"E-Cubed Academy Senior High","Latitude":41.85417,"Longitude":-71.43444},{"datetime":"2023-03-03 11:00:00","co2_corrected":460.0,"temp":17.402665,"Sensor ID":"Bs52202","Node ID":264,"Location":"E-Cubed Academy Senior High","Latitude":41.85417,"Longitude":-71.43444},{"datetime":"2023-03-03 10:00:00","co2_corrected":461.0,"temp":15.9064601667,"Sensor ID":"Bs52202","Node ID":264,"Location":"E-Cubed Academy Senior High","Latitude":41.85417,"Longitude":-71.43444},{"datetime":"2023-03-03 09:00:00","co2_corrected":473.0,"temp":6.6519921667,"Sensor ID":"Bs52202","Node ID":264,"Location":"E-Cubed Academy Senior High","Latitude":41.85417,"Longitude":-71.43444},{"datetime":"2023-03-03 08:00:00","co2_corrected":506.0,"temp":-0.27306,"Sensor ID":"Bs52202","Node ID":264,"Location":"E-Cubed Academy Senior High","Latitude":41.85417,"Longitude":-71.43444},{"datetime":"2023-03-03 07:00:00","co2_corrected":476.0,"temp":0.6967908333,"Sensor ID":"Bs52202","Node ID":264,"Location":"E-Cubed Academy Senior High","Latitude":41.85417,"Longitude":-71.43444},{"datetime":"2023-03-03 06:00:00","co2_corrected":460.0,"temp":1.7576318333,"Sensor ID":"Bs52202","Node ID":264,"Location":"E-Cubed Academy Senior High","Latitude":41.85417,"Longitude":-71.43444},{"datetime":"2023-03-03 05:00:00","co2_corrected":454.0,"temp":2.8844481667,"Sensor ID":"Bs52202","Node ID":264,"Location":"E-Cubed Academy Senior High","Latitude":41.85417,"Longitude":-71.43444},{"datetime":"2023-03-03 14:00:00","co2_corrected":470.0,"temp":25.0982031667,"Sensor ID":"Bs72202","Node ID":270,"Location":"Smith Hill Library","Latitude":41.83549,"Longitude":-71.42217},{"datetime":"2023-03-03 13:00:00","co2_corrected":468.0,"temp":23.9647574576,"Sensor ID":"Bs72202","Node ID":270,"Location":"Smith Hill Library","Latitude":41.83549,"Longitude":-71.42217},{"datetime":"2023-03-03 12:00:00","co2_corrected":469.0,"temp":23.4295051667,"Sensor ID":"Bs72202","Node ID":270,"Location":"Smith Hill Library","Latitude":41.83549,"Longitude":-71.42217},{"datetime":"2023-03-03 11:00:00","co2_corrected":468.0,"temp":21.0420331667,"Sensor ID":"Bs72202","Node ID":270,"Location":"Smith Hill Library","Latitude":41.83549,"Longitude":-71.42217},{"datetime":"2023-03-03 10:00:00","co2_corrected":471.0,"temp":14.6571875,"Sensor ID":"Bs72202","Node ID":270,"Location":"Smith Hill Library","Latitude":41.83549,"Longitude":-71.42217},{"datetime":"2023-03-03 09:00:00","co2_corrected":484.0,"temp":6.3835381667,"Sensor ID":"Bs72202","Node ID":270,"Location":"Smith Hill Library","Latitude":41.83549,"Longitude":-71.42217},{"datetime":"2023-03-03 08:00:00","co2_corrected":488.0,"temp":3.0777326667,"Sensor ID":"Bs72202","Node ID":270,"Location":"Smith Hill Library","Latitude":41.83549,"Longitude":-71.42217},{"datetime":"2023-03-03 07:00:00","co2_corrected":481.0,"temp":3.364675,"Sensor ID":"Bs72202","Node ID":270,"Location":"Smith Hill Library","Latitude":41.83549,"Longitude":-71.42217},{"datetime":"2023-03-03 06:00:00","co2_corrected":480.0,"temp":3.9176185,"Sensor ID":"Bs72202","Node ID":270,"Location":"Smith Hill Library","Latitude":41.83549,"Longitude":-71.42217},{"datetime":"2023-03-03 05:00:00","co2_corrected":468.0,"temp":4.4393775,"Sensor ID":"Bs72202","Node ID":270,"Location":"Smith Hill Library","Latitude":41.83549,"Longitude":-71.42217},{"datetime":"2023-03-03 14:00:00","co2_corrected":473.0,"temp":19.4229635,"Sensor ID":"Bs102202","Node ID":251,"Location":"Zuccolo Recreation Center","Latitude":41.82287,"Longitude":-71.43067},{"datetime":"2023-03-03 13:00:00","co2_corrected":469.0,"temp":17.1753666102,"Sensor ID":"Bs102202","Node ID":251,"Location":"Zuccolo Recreation Center","Latitude":41.82287,"Longitude":-71.43067},{"datetime":"2023-03-03 12:00:00","co2_corrected":469.0,"temp":16.7419503333,"Sensor ID":"Bs102202","Node ID":251,"Location":"Zuccolo Recreation Center","Latitude":41.82287,"Longitude":-71.43067},{"datetime":"2023-03-03 11:00:00","co2_corrected":469.0,"temp":13.716694,"Sensor ID":"Bs102202","Node ID":251,"Location":"Zuccolo Recreation Center","Latitude":41.82287,"Longitude":-71.43067},{"datetime":"2023-03-03 10:00:00","co2_corrected":474.0,"temp":5.2885731667,"Sensor ID":"Bs102202","Node ID":251,"Location":"Zuccolo Recreation Center","Latitude":41.82287,"Longitude":-71.43067},{"datetime":"2023-03-03 09:00:00","co2_corrected":483.0,"temp":3.5041826667,"Sensor ID":"Bs102202","Node ID":251,"Location":"Zuccolo Recreation Center","Latitude":41.82287,"Longitude":-71.43067},{"datetime":"2023-03-03 08:00:00","co2_corrected":489.0,"temp":2.4882445,"Sensor ID":"Bs102202","Node ID":251,"Location":"Zuccolo Recreation Center","Latitude":41.82287,"Longitude":-71.43067},{"datetime":"2023-03-03 07:00:00","co2_corrected":483.0,"temp":2.7461903333,"Sensor ID":"Bs102202","Node ID":251,"Location":"Zuccolo Recreation Center","Latitude":41.82287,"Longitude":-71.43067},{"datetime":"2023-03-03 06:00:00","co2_corrected":478.0,"temp":3.3501585,"Sensor ID":"Bs102202","Node ID":251,"Location":"Zuccolo Recreation Center","Latitude":41.82287,"Longitude":-71.43067},{"datetime":"2023-03-03 05:00:00","co2_corrected":469.0,"temp":3.9326288333,"Sensor ID":"Bs102202","Node ID":251,"Location":"Zuccolo Recreation Center","Latitude":41.82287,"Longitude":-71.43067},{"datetime":"2023-03-03 09:00:00","co2_corrected":461.0,"temp":4.5785131667,"Sensor ID":"Bs162202","Node ID":263,"Location":"South Providence Library","Latitude":41.80205,"Longitude":-71.41378},{"datetime":"2023-03-03 08:00:00","co2_corrected":469.0,"temp":3.1038071667,"Sensor ID":"Bs162202","Node ID":263,"Location":"South Providence Library","Latitude":41.80205,"Longitude":-71.41378},{"datetime":"2023-03-03 07:00:00","co2_corrected":460.0,"temp":3.375205,"Sensor ID":"Bs162202","Node ID":263,"Location":"South Providence Library","Latitude":41.80205,"Longitude":-71.41378},{"datetime":"2023-03-03 06:00:00","co2_corrected":453.0,"temp":3.9538356667,"Sensor ID":"Bs162202","Node ID":263,"Location":"South Providence Library","Latitude":41.80205,"Longitude":-71.41378},{"datetime":"2023-03-03 05:00:00","co2_corrected":446.0,"temp":4.5675318333,"Sensor ID":"Bs162202","Node ID":263,"Location":"South Providence Library","Latitude":41.80205,"Longitude":-71.41378},{"datetime":-1,"co2_corrected":-1.0,"temp":-1.0,"Sensor ID":"Bs12202","Node ID":250,"Location":"Myron J. Francis Elementary","Latitude":41.84094,"Longitude":-71.36093},{"datetime":-1,"co2_corrected":-1.0,"temp":-1.0,"Sensor ID":"Bs62202","Node ID":267,"Location":"Rochambeau Library","Latitude":41.84621,"Longitude":-71.39663},{"datetime":-1,"co2_corrected":-1.0,"temp":-1.0,"Sensor ID":"Bs112202","Node ID":252,"Location":"West End Community Center","Latitude":41.80439,"Longitude":-71.42825},{"datetime":-1,"co2_corrected":-1.0,"temp":-1.0,"Sensor ID":"Bs122202","Node ID":255,"Location":"United Way","Latitude":41.81803,"Longitude":-71.44121},{"datetime":-1,"co2_corrected":-1.0,"temp":-1.0,"Sensor ID":"Bs132202","Node ID":255,"Location":"Providence Housing Authority  ","Latitude":41.81714,"Longitude":-71.45533},{"datetime":-1,"co2_corrected":-1.0,"temp":-1.0,"Sensor ID":"Bs142202","Node ID":259,"Location":"CCRI - Liston Campus","Latitude":41.80745,"Longitude":-71.41341},{"datetime":-1,"co2_corrected":-1.0,"temp":-1.0,"Sensor ID":"Bs152202","Node ID":262,"Location":"Main Street Martial Arts","Latitude":41.85521,"Longitude":-71.40042},{"datetime":-1,"co2_corrected":-1.0,"temp":-1.0,"Sensor ID":"Bs192202","Node ID":272,"Location":"Rock Spot","Latitude":41.81509,"Longitude":-71.42216}]