[{"datetime":1675083600000,"co2_corrected":455.8371163368,"temp":9.1204213333,"Sensor ID":"Bs22202","Node ID":254,"Location":"Silver Lake Residence","Latitude":41.81052,"Longitude":-71.44752},{"datetime":1675083600000,"co2_corrected":500.600175926,"temp":6.158848,"Sensor ID":"Bs32202","Node ID":258,"Location":"Reservoir Ave Elementary","Latitude":41.79157,"Longitude":-71.42788},{"datetime":1675083600000,"co2_corrected":445.4355926283,"temp":6.3680671667,"Sensor ID":"Bs42202","Node ID":261,"Location":"Anthony Carnevale Elementary","Latitude":41.81678,"Longitude":-71.46458},{"datetime":1675083600000,"co2_corrected":473.9103727068,"temp":8.131236,"Sensor ID":"Bs72202","Node ID":270,"Location":"Smith Hill Library","Latitude":41.83549,"Longitude":-71.42217},{"datetime":1675083600000,"co2_corrected":466.1758462182,"temp":9.4866278333,"Sensor ID":"Bs82202","Node ID":274,"Location":"Alpert Medical School","Latitude":41.81898,"Longitude":-71.40826},{"datetime":1675083600000,"co2_corrected":457.48186749,"temp":7.690725,"Sensor ID":"Bs102202","Node ID":251,"Location":"Zuccolo Recreation Center","Latitude":41.82287,"Longitude":-71.43067},{"datetime":1675083600000,"co2_corrected":464.2590732641,"temp":6.5545261667,"Sensor ID":"Bs112202","Node ID":252,"Location":"West End Community Center","Latitude":41.80439,"Longitude":-71.42825},{"datetime":1675083600000,"co2_corrected":457.9764933501,"temp":6.7703021667,"Sensor ID":"Bs122202","Node ID":255,"Location":"United Way","Latitude":41.81803,"Longitude":-71.44121},{"datetime":1675083600000,"co2_corrected":457.9764933501,"temp":6.7703021667,"Sensor ID":"Bs122202","Node ID":255,"Location":"United Way","Latitude":41.81803,"Longitude":-71.44121},{"datetime":1675083600000,"co2_corrected":457.9764933501,"temp":6.7703021667,"Sensor ID":"Bs132202","Node ID":255,"Location":"Providence Housing Authority  ","Latitude":41.81714,"Longitude":-71.45533},{"datetime":1675083600000,"co2_corrected":457.9764933501,"temp":6.7703021667,"Sensor ID":"Bs132202","Node ID":255,"Location":"Providence Housing Authority  ","Latitude":41.81714,"Longitude":-71.45533},{"datetime":1675083600000,"co2_corrected":478.8918570285,"temp":8.6877735,"Sensor ID":"Bs162202","Node ID":263,"Location":"South Providence Library","Latitude":41.80205,"Longitude":-71.41378},{"datetime":1675083600000,"co2_corrected":472.1571982516,"temp":7.4907408333,"Sensor ID":"Bs192202","Node ID":272,"Location":"Rock Spot","Latitude":41.81509,"Longitude":-71.42216},{"datetime":-999,"co2_corrected":-999.0,"temp":-999.0,"Sensor ID":"Bs12202","Node ID":250,"Location":"Myron J. Francis Elementary","Latitude":41.84094,"Longitude":-71.36093},{"datetime":-999,"co2_corrected":-999.0,"temp":-999.0,"Sensor ID":"Bs52202","Node ID":264,"Location":"E-Cubed Academy Senior High","Latitude":41.85417,"Longitude":-71.43444},{"datetime":-999,"co2_corrected":-999.0,"temp":-999.0,"Sensor ID":"Bs62202","Node ID":267,"Location":"Rochambeau Library","Latitude":41.84621,"Longitude":-71.39663},{"datetime":-999,"co2_corrected":-999.0,"temp":-999.0,"Sensor ID":"Bs92202","Node ID":276,"Location":"Department of Public Works","Latitude":41.7952,"Longitude":-71.39784},{"datetime":-999,"co2_corrected":-999.0,"temp":-999.0,"Sensor ID":"Bs142202","Node ID":259,"Location":"CCRI - Liston Campus","Latitude":41.80745,"Longitude":-71.41341},{"datetime":-999,"co2_corrected":-999.0,"temp":-999.0,"Sensor ID":"Bs152202","Node ID":262,"Location":"Main Street Martial Arts","Latitude":41.85521,"Longitude":-71.40042}]