[{"datetime":"2023-03-16 10:00:00","co2_corrected":487.0,"temp":11.2841673333,"Sensor ID":"Bs192202","Node ID":272,"Location":"Rock Spot","Latitude":41.81509,"Longitude":-71.42216},{"datetime":"2023-03-16 09:00:00","co2_corrected":489.0,"temp":6.432641,"Sensor ID":"Bs192202","Node ID":272,"Location":"Rock Spot","Latitude":41.81509,"Longitude":-71.42216},{"datetime":"2023-03-16 08:00:00","co2_corrected":484.0,"temp":3.3512651667,"Sensor ID":"Bs192202","Node ID":272,"Location":"Rock Spot","Latitude":41.81509,"Longitude":-71.42216},{"datetime":"2023-03-16 07:00:00","co2_corrected":481.0,"temp":2.7500756667,"Sensor ID":"Bs192202","Node ID":272,"Location":"Rock Spot","Latitude":41.81509,"Longitude":-71.42216},{"datetime":"2023-03-16 06:00:00","co2_corrected":480.0,"temp":2.7136075,"Sensor ID":"Bs192202","Node ID":272,"Location":"Rock Spot","Latitude":41.81509,"Longitude":-71.42216},{"datetime":"2023-03-16 05:00:00","co2_corrected":479.0,"temp":2.9801903333,"Sensor ID":"Bs192202","Node ID":272,"Location":"Rock Spot","Latitude":41.81509,"Longitude":-71.42216},{"datetime":"2023-03-16 04:00:00","co2_corrected":479.0,"temp":3.029575,"Sensor ID":"Bs192202","Node ID":272,"Location":"Rock Spot","Latitude":41.81509,"Longitude":-71.42216},{"datetime":"2023-03-16 10:00:00","co2_corrected":459.0,"temp":11.648319,"Sensor ID":"Bs152202","Node ID":262,"Location":"Main Street Martial Arts","Latitude":41.85521,"Longitude":-71.40042},{"datetime":"2023-03-16 09:00:00","co2_corrected":461.0,"temp":7.8752725,"Sensor ID":"Bs152202","Node ID":262,"Location":"Main Street Martial Arts","Latitude":41.85521,"Longitude":-71.40042},{"datetime":"2023-03-16 08:00:00","co2_corrected":461.0,"temp":4.3050466667,"Sensor ID":"Bs152202","Node ID":262,"Location":"Main Street Martial Arts","Latitude":41.85521,"Longitude":-71.40042},{"datetime":"2023-03-16 07:00:00","co2_corrected":460.0,"temp":3.3046248333,"Sensor ID":"Bs152202","Node ID":262,"Location":"Main Street Martial Arts","Latitude":41.85521,"Longitude":-71.40042},{"datetime":"2023-03-16 06:00:00","co2_corrected":458.0,"temp":3.4043075,"Sensor ID":"Bs152202","Node ID":262,"Location":"Main Street Martial Arts","Latitude":41.85521,"Longitude":-71.40042},{"datetime":"2023-03-16 05:00:00","co2_corrected":459.0,"temp":3.6742973333,"Sensor ID":"Bs152202","Node ID":262,"Location":"Main Street Martial Arts","Latitude":41.85521,"Longitude":-71.40042},{"datetime":"2023-03-16 04:00:00","co2_corrected":457.0,"temp":3.8058033333,"Sensor ID":"Bs152202","Node ID":262,"Location":"Main Street Martial Arts","Latitude":41.85521,"Longitude":-71.40042},{"datetime":"2023-03-16 10:00:00","co2_corrected":460.0,"temp":15.021223,"Sensor ID":"Bs142202","Node ID":259,"Location":"CCRI - Liston Campus","Latitude":41.80745,"Longitude":-71.41341},{"datetime":"2023-03-16 09:00:00","co2_corrected":460.0,"temp":9.4807901667,"Sensor ID":"Bs142202","Node ID":259,"Location":"CCRI - Liston Campus","Latitude":41.80745,"Longitude":-71.41341},{"datetime":"2023-03-16 08:00:00","co2_corrected":461.0,"temp":5.3371961667,"Sensor ID":"Bs142202","Node ID":259,"Location":"CCRI - Liston Campus","Latitude":41.80745,"Longitude":-71.41341},{"datetime":"2023-03-16 07:00:00","co2_corrected":460.0,"temp":3.279487,"Sensor ID":"Bs142202","Node ID":259,"Location":"CCRI - Liston Campus","Latitude":41.80745,"Longitude":-71.41341},{"datetime":"2023-03-16 06:00:00","co2_corrected":459.0,"temp":3.3962636667,"Sensor ID":"Bs142202","Node ID":259,"Location":"CCRI - Liston Campus","Latitude":41.80745,"Longitude":-71.41341},{"datetime":"2023-03-16 05:00:00","co2_corrected":458.0,"temp":3.629408,"Sensor ID":"Bs142202","Node ID":259,"Location":"CCRI - Liston Campus","Latitude":41.80745,"Longitude":-71.41341},{"datetime":"2023-03-16 04:00:00","co2_corrected":460.0,"temp":3.7178978333,"Sensor ID":"Bs142202","Node ID":259,"Location":"CCRI - Liston Campus","Latitude":41.80745,"Longitude":-71.41341},{"datetime":"2023-03-16 10:00:00","co2_corrected":452.0,"temp":14.5754568333,"Sensor ID":"Bs22202","Node ID":254,"Location":"Silver Lake Residence","Latitude":41.81052,"Longitude":-71.44752},{"datetime":"2023-03-16 09:00:00","co2_corrected":455.0,"temp":7.6430036667,"Sensor ID":"Bs22202","Node ID":254,"Location":"Silver Lake Residence","Latitude":41.81052,"Longitude":-71.44752},{"datetime":"2023-03-16 08:00:00","co2_corrected":459.0,"temp":4.4704776667,"Sensor ID":"Bs22202","Node ID":254,"Location":"Silver Lake Residence","Latitude":41.81052,"Longitude":-71.44752},{"datetime":"2023-03-16 07:00:00","co2_corrected":457.0,"temp":4.151362,"Sensor ID":"Bs22202","Node ID":254,"Location":"Silver Lake Residence","Latitude":41.81052,"Longitude":-71.44752},{"datetime":"2023-03-16 06:00:00","co2_corrected":456.0,"temp":4.2599223333,"Sensor ID":"Bs22202","Node ID":254,"Location":"Silver Lake Residence","Latitude":41.81052,"Longitude":-71.44752},{"datetime":"2023-03-16 05:00:00","co2_corrected":453.0,"temp":4.3982356667,"Sensor ID":"Bs22202","Node ID":254,"Location":"Silver Lake Residence","Latitude":41.81052,"Longitude":-71.44752},{"datetime":"2023-03-16 04:00:00","co2_corrected":453.0,"temp":4.4981725,"Sensor ID":"Bs22202","Node ID":254,"Location":"Silver Lake Residence","Latitude":41.81052,"Longitude":-71.44752},{"datetime":"2023-03-16 10:00:00","co2_corrected":468.0,"temp":7.0974445,"Sensor ID":"Bs102202","Node ID":251,"Location":"Zuccolo Recreation Center","Latitude":41.82287,"Longitude":-71.43067},{"datetime":"2023-03-16 09:00:00","co2_corrected":471.0,"temp":4.4065173333,"Sensor ID":"Bs102202","Node ID":251,"Location":"Zuccolo Recreation Center","Latitude":41.82287,"Longitude":-71.43067},{"datetime":"2023-03-16 08:00:00","co2_corrected":473.0,"temp":3.3558205,"Sensor ID":"Bs102202","Node ID":251,"Location":"Zuccolo Recreation Center","Latitude":41.82287,"Longitude":-71.43067},{"datetime":"2023-03-16 07:00:00","co2_corrected":468.0,"temp":3.015156,"Sensor ID":"Bs102202","Node ID":251,"Location":"Zuccolo Recreation Center","Latitude":41.82287,"Longitude":-71.43067},{"datetime":"2023-03-16 06:00:00","co2_corrected":468.0,"temp":3.103049,"Sensor ID":"Bs102202","Node ID":251,"Location":"Zuccolo Recreation Center","Latitude":41.82287,"Longitude":-71.43067},{"datetime":"2023-03-16 05:00:00","co2_corrected":467.0,"temp":3.3731003333,"Sensor ID":"Bs102202","Node ID":251,"Location":"Zuccolo Recreation Center","Latitude":41.82287,"Longitude":-71.43067},{"datetime":"2023-03-16 04:00:00","co2_corrected":467.0,"temp":3.4494935,"Sensor ID":"Bs102202","Node ID":251,"Location":"Zuccolo Recreation Center","Latitude":41.82287,"Longitude":-71.43067},{"datetime":"2023-03-16 10:00:00","co2_corrected":464.0,"temp":12.4316261667,"Sensor ID":"Bs92202","Node ID":276,"Location":"Department of Public Works","Latitude":41.7952,"Longitude":-71.39784},{"datetime":"2023-03-16 09:00:00","co2_corrected":468.0,"temp":9.3458038333,"Sensor ID":"Bs92202","Node ID":276,"Location":"Department of Public Works","Latitude":41.7952,"Longitude":-71.39784},{"datetime":"2023-03-16 08:00:00","co2_corrected":469.0,"temp":6.8449841667,"Sensor ID":"Bs92202","Node ID":276,"Location":"Department of Public Works","Latitude":41.7952,"Longitude":-71.39784},{"datetime":"2023-03-16 07:00:00","co2_corrected":467.0,"temp":5.9863623333,"Sensor ID":"Bs92202","Node ID":276,"Location":"Department of Public Works","Latitude":41.7952,"Longitude":-71.39784},{"datetime":"2023-03-16 06:00:00","co2_corrected":463.0,"temp":6.0891815,"Sensor ID":"Bs92202","Node ID":276,"Location":"Department of Public Works","Latitude":41.7952,"Longitude":-71.39784},{"datetime":"2023-03-16 05:00:00","co2_corrected":461.0,"temp":6.3095273333,"Sensor ID":"Bs92202","Node ID":276,"Location":"Department of Public Works","Latitude":41.7952,"Longitude":-71.39784},{"datetime":"2023-03-16 04:00:00","co2_corrected":461.0,"temp":6.3581511667,"Sensor ID":"Bs92202","Node ID":276,"Location":"Department of Public Works","Latitude":41.7952,"Longitude":-71.39784},{"datetime":"2023-03-16 10:00:00","co2_corrected":462.0,"temp":10.6454208333,"Sensor ID":"Bs82202","Node ID":274,"Location":"Alpert Medical School","Latitude":41.81898,"Longitude":-71.40826},{"datetime":"2023-03-16 09:00:00","co2_corrected":465.0,"temp":8.2243351667,"Sensor ID":"Bs82202","Node ID":274,"Location":"Alpert Medical School","Latitude":41.81898,"Longitude":-71.40826},{"datetime":"2023-03-16 08:00:00","co2_corrected":467.0,"temp":4.7683298333,"Sensor ID":"Bs82202","Node ID":274,"Location":"Alpert Medical School","Latitude":41.81898,"Longitude":-71.40826},{"datetime":"2023-03-16 07:00:00","co2_corrected":466.0,"temp":4.345939,"Sensor ID":"Bs82202","Node ID":274,"Location":"Alpert Medical School","Latitude":41.81898,"Longitude":-71.40826},{"datetime":"2023-03-16 06:00:00","co2_corrected":464.0,"temp":4.436759,"Sensor ID":"Bs82202","Node ID":274,"Location":"Alpert Medical School","Latitude":41.81898,"Longitude":-71.40826},{"datetime":"2023-03-16 05:00:00","co2_corrected":462.0,"temp":4.6900516667,"Sensor ID":"Bs82202","Node ID":274,"Location":"Alpert Medical School","Latitude":41.81898,"Longitude":-71.40826},{"datetime":"2023-03-16 04:00:00","co2_corrected":463.0,"temp":4.8042776667,"Sensor ID":"Bs82202","Node ID":274,"Location":"Alpert Medical School","Latitude":41.81898,"Longitude":-71.40826},{"datetime":"2023-03-16 10:00:00","co2_corrected":460.0,"temp":14.8413231667,"Sensor ID":"Bs52202","Node ID":264,"Location":"E-Cubed Academy Senior High","Latitude":41.85417,"Longitude":-71.43444},{"datetime":"2023-03-16 09:00:00","co2_corrected":461.0,"temp":9.3116608333,"Sensor ID":"Bs52202","Node ID":264,"Location":"E-Cubed Academy Senior High","Latitude":41.85417,"Longitude":-71.43444},{"datetime":"2023-03-16 08:00:00","co2_corrected":461.0,"temp":4.1319158333,"Sensor ID":"Bs52202","Node ID":264,"Location":"E-Cubed Academy Senior High","Latitude":41.85417,"Longitude":-71.43444},{"datetime":"2023-03-16 07:00:00","co2_corrected":457.0,"temp":2.2245135,"Sensor ID":"Bs52202","Node ID":264,"Location":"E-Cubed Academy Senior High","Latitude":41.85417,"Longitude":-71.43444},{"datetime":"2023-03-16 06:00:00","co2_corrected":456.0,"temp":2.139518,"Sensor ID":"Bs52202","Node ID":264,"Location":"E-Cubed Academy Senior High","Latitude":41.85417,"Longitude":-71.43444},{"datetime":"2023-03-16 05:00:00","co2_corrected":456.0,"temp":2.4847356667,"Sensor ID":"Bs52202","Node ID":264,"Location":"E-Cubed Academy Senior High","Latitude":41.85417,"Longitude":-71.43444},{"datetime":"2023-03-16 04:00:00","co2_corrected":455.0,"temp":2.7055041667,"Sensor ID":"Bs52202","Node ID":264,"Location":"E-Cubed Academy Senior High","Latitude":41.85417,"Longitude":-71.43444},{"datetime":"2023-03-16 09:00:00","co2_corrected":470.0,"temp":7.3331498333,"Sensor ID":"Bs72202","Node ID":270,"Location":"Smith Hill Library","Latitude":41.83549,"Longitude":-71.42217},{"datetime":"2023-03-16 08:00:00","co2_corrected":472.0,"temp":5.4059061667,"Sensor ID":"Bs72202","Node ID":270,"Location":"Smith Hill Library","Latitude":41.83549,"Longitude":-71.42217},{"datetime":"2023-03-16 07:00:00","co2_corrected":468.0,"temp":4.011355,"Sensor ID":"Bs72202","Node ID":270,"Location":"Smith Hill Library","Latitude":41.83549,"Longitude":-71.42217},{"datetime":"2023-03-16 06:00:00","co2_corrected":467.0,"temp":4.0949381667,"Sensor ID":"Bs72202","Node ID":270,"Location":"Smith Hill Library","Latitude":41.83549,"Longitude":-71.42217},{"datetime":"2023-03-16 05:00:00","co2_corrected":467.0,"temp":4.4013011667,"Sensor ID":"Bs72202","Node ID":270,"Location":"Smith Hill Library","Latitude":41.83549,"Longitude":-71.42217},{"datetime":"2023-03-16 04:00:00","co2_corrected":467.0,"temp":4.501705,"Sensor ID":"Bs72202","Node ID":270,"Location":"Smith Hill Library","Latitude":41.83549,"Longitude":-71.42217},{"datetime":"2023-03-16 06:00:00","co2_corrected":441.0,"temp":3.7296126667,"Sensor ID":"Bs162202","Node ID":263,"Location":"South Providence Library","Latitude":41.80205,"Longitude":-71.41378},{"datetime":"2023-03-16 05:00:00","co2_corrected":445.0,"temp":3.9250478333,"Sensor ID":"Bs162202","Node ID":263,"Location":"South Providence Library","Latitude":41.80205,"Longitude":-71.41378},{"datetime":"2023-03-16 04:00:00","co2_corrected":442.0,"temp":4.0523773333,"Sensor ID":"Bs162202","Node ID":263,"Location":"South Providence Library","Latitude":41.80205,"Longitude":-71.41378},{"datetime":-1,"co2_corrected":-1.0,"temp":-1.0,"Sensor ID":"Bs12202","Node ID":250,"Location":"Myron J. Francis Elementary","Latitude":41.84094,"Longitude":-71.36093},{"datetime":-1,"co2_corrected":-1.0,"temp":-1.0,"Sensor ID":"Bs32202","Node ID":258,"Location":"Reservoir Ave Elementary","Latitude":41.79157,"Longitude":-71.42788},{"datetime":-1,"co2_corrected":-1.0,"temp":-1.0,"Sensor ID":"Bs42202","Node ID":261,"Location":"Anthony Carnevale Elementary","Latitude":41.81678,"Longitude":-71.46458},{"datetime":-1,"co2_corrected":-1.0,"temp":-1.0,"Sensor ID":"Bs62202","Node ID":267,"Location":"Rochambeau Library","Latitude":41.84621,"Longitude":-71.39663},{"datetime":-1,"co2_corrected":-1.0,"temp":-1.0,"Sensor ID":"Bs112202","Node ID":252,"Location":"West End Community Center","Latitude":41.80439,"Longitude":-71.42825},{"datetime":-1,"co2_corrected":-1.0,"temp":-1.0,"Sensor ID":"Bs122202","Node ID":255,"Location":"United Way","Latitude":41.81803,"Longitude":-71.44121},{"datetime":-1,"co2_corrected":-1.0,"temp":-1.0,"Sensor ID":"Bs132202","Node ID":255,"Location":"Providence Housing Authority  ","Latitude":41.81714,"Longitude":-71.45533}]